{"type": "FeatureCollection", "features": [{"geometry": {"type": "Point", "coordinates": [-71.07319439999999, 42.350667]}, "type": "Feature", "properties": {"startdate": "11/28/2016 0:00:00", "enddate": "2/17/2017 0:00:00", "sticker": "100247228", "contractor": "STRUCTURETONE", "address": "222 Berkeley St, Boston, MA 02116, USA", "formtype": "aq06", "exportdate": "12/8/2016 11:23:59"}}, {"geometry": {"type": "Point", "coordinates": [-71.0638559, 42.3980937]}, "type": "Feature", "properties": {"startdate": "11/21/2016 0:00:00", "enddate": "12/31/2016 0:00:00", "sticker": "100249693", "contractor": "JR VINAGRO", "address": "80 Broadway, Everett, MA 02149, USA", "formtype": "aq06", "exportdate": "12/8/2016 11:23:59"}}, {"geometry": {"type": "Point", "coordinates": [-71.899627, 42.117852]}, "type": "Feature", "properties": {"startdate": "9/1/2016 0:00:00", "enddate": "12/30/2016 0:00:00", "sticker": "100250155R1", "contractor": "PATRIOTS ENVIRONMENTAL", "address": "233 Old Webster Rd, Oxford, MA 01540, USA", "formtype": "aq06", "exportdate": "12/8/2016 11:23:59"}}, {"geometry": {"type": "Point", "coordinates": [-71.085968, 42.36144100000001]}, "type": "Feature", "properties": {"startdate": "12/1/2016 0:00:00", "enddate": "3/1/2017 0:00:00", "sticker": "100252636", "contractor": "NORTHSTAR CONTRACTING", "address": "42 Carleton St, Cambridge, MA 02142, USA", "formtype": "aq06", "exportdate": "12/8/2016 11:23:59"}}, {"geometry": {"type": "Point", "coordinates": [-71.062135, 42.32447699999999]}, "type": "Feature", "properties": {"startdate": "12/23/2016 0:00:00", "enddate": "1/23/2017 0:00:00", "sticker": "100252927R4", "contractor": "JR VINAGRO", "address": "55 Enterprise St, Dorchester, MA 02125, USA", "formtype": "aq06", "exportdate": "12/19/2016 10:09:11"}}, {"geometry": {"type": "Point", "coordinates": [-71.4391254, 42.3000575]}, "type": "Feature", "properties": {"startdate": "11/24/2016 0:00:00", "enddate": "3/1/2017 0:00:00", "sticker": "100253107", "contractor": "TBD", "address": "1245 Worcester Rd, Framingham, MA 01701, USA", "formtype": "aq06", "exportdate": "12/8/2016 11:23:59"}}, {"geometry": {"type": "Point", "coordinates": [-71.6337666, 42.6134336]}, "type": "Feature", "properties": {"startdate": "11/17/2016 0:00:00", "enddate": "12/8/2016 0:00:00", "sticker": "100253211", "contractor": "ADVANCED BUILDING SYSTEMS", "address": "219 Townsend Rd, Groton, MA 01450, USA", "formtype": "aq06", "exportdate": "12/8/2016 11:23:59"}}, {"geometry": {"type": "Point", "coordinates": [-71.8496282, 42.2083181]}, "type": "Feature", "properties": {"startdate": "11/14/2016 0:00:00", "enddate": "11/28/2016 0:00:00", "sticker": "100253349", "contractor": "ROB JUDSON CONTRACTING", "address": "27 Green St, Auburn, MA 01501, USA", "formtype": "aq06", "exportdate": "12/8/2016 11:23:59"}}, {"geometry": {"type": "Point", "coordinates": [-71.01848129999999, 42.1067443]}, "type": "Feature", "properties": {"startdate": "11/16/2016 0:00:00", "enddate": "7/1/2017 0:00:00", "sticker": "100253362", "contractor": "JJ CARDOSI", "address": "144 Field St, Brockton, MA 02302, USA", "formtype": "aq06", "exportdate": "12/8/2016 11:23:59"}}, {"geometry": {"type": "Point", "coordinates": [-71.11059999999999, 42.3646127]}, "type": "Feature", "properties": {"startdate": "11/18/2016 0:00:00", "enddate": "5/31/2017 0:00:00", "sticker": "100253583", "contractor": "USA DEMO", "address": "212 Western Ave, Cambridge, MA 02139, USA", "formtype": "aq06", "exportdate": "12/8/2016 11:23:59"}}, {"geometry": {"type": "Point", "coordinates": [-71.1430395, 42.3625584]}, "type": "Feature", "properties": {"startdate": "11/28/2016 0:00:00", "enddate": "2/3/2017 0:00:00", "sticker": "100253613", "contractor": "WS AIKEN ROOFING", "address": "1380 Soldiers Field Rd, Boston, MA 02135, USA", "formtype": "aq06", "exportdate": "12/8/2016 11:23:59"}}, {"geometry": {"type": "Point", "coordinates": [-71.061279, 42.3541882]}, "type": "Feature", "properties": {"startdate": "11/14/2016 0:00:00", "enddate": "1/31/2017 0:00:00", "sticker": "100253698", "contractor": "COLUMBIA CONSTRUCTION", "address": "2 Ave de Lafayette, Boston, MA 02111, USA", "formtype": "aq06", "exportdate": "12/8/2016 11:23:59"}}, {"geometry": {"type": "Point", "coordinates": [-71.2751809, 42.3993247]}, "type": "Feature", "properties": {"startdate": "11/15/2016 0:00:00", "enddate": "8/1/2018 0:00:00", "sticker": "100253859", "contractor": "BW KENNEDY", "address": "828 Winter St, Waltham, MA 02451, USA", "formtype": "aq06", "exportdate": "12/8/2016 11:23:59"}}, {"geometry": {"type": "Point", "coordinates": [-71.11795649999999, 42.380068]}, "type": "Feature", "properties": {"startdate": "11/22/2016 0:00:00", "enddate": "12/5/2016 0:00:00", "sticker": "100253899", "contractor": "BERKELEY BUILDING", "address": "23 Everett St, Cambridge, MA 02138, USA", "formtype": "aq06", "exportdate": "12/8/2016 11:23:59"}}, {"geometry": {"type": "Point", "coordinates": [-71.0881734, 42.339348]}, "type": "Feature", "properties": {"startdate": "11/12/2016 0:00:00", "enddate": "12/31/2016 0:00:00", "sticker": "100253901", "contractor": "RPG CLEANING", "address": "360 Huntington Ave, Boston, MA 02115, USA", "formtype": "aq06", "exportdate": "12/8/2016 11:23:59"}}, {"geometry": {"type": "Point", "coordinates": [-71.87952349999999, 42.0497756]}, "type": "Feature", "properties": {"startdate": "11/14/2016 0:00:00", "enddate": "12/30/2016 0:00:00", "sticker": "100253958", "contractor": "AMERICAN ENVIRONMENTAL", "address": "2 Lake St, Webster, MA 01570, USA", "formtype": "aq06", "exportdate": "12/8/2016 11:23:59"}}, {"geometry": {"type": "Point", "coordinates": [-71.1436085, 42.5087614]}, "type": "Feature", "properties": {"startdate": "11/14/2016 0:00:00", "enddate": "11/14/2017 0:00:00", "sticker": "100253992", "contractor": "ATLANTIC BOSTON CONSTRUCTION", "address": "155 New Boston St, Woburn, MA 01801, USA", "formtype": "aq06", "exportdate": "12/8/2016 11:23:59"}}, {"geometry": {"type": "Point", "coordinates": [-71.18899569999999, 42.7303966]}, "type": "Feature", "properties": {"startdate": "11/21/2016 0:00:00", "enddate": "1/24/2017 0:00:00", "sticker": "100253995", "contractor": "KNEELAND CONSTRUCTION", "address": "305 Broadway, Methuen, MA 01844, USA", "formtype": "aq06", "exportdate": "12/8/2016 11:23:59"}}, {"geometry": {"type": "Point", "coordinates": [-72.08865879999999, 42.1125611]}, "type": "Feature", "properties": {"startdate": "11/11/2016 0:00:00", "enddate": "11/30/2016 0:00:00", "sticker": "100253997R1", "contractor": "NORTHEASTERN ENGINEERING CONTRACTING", "address": "362 Main St, Sturbridge, MA 01566, USA", "formtype": "aq06", "exportdate": "12/9/2016 15:07:04"}}, {"geometry": {"type": "Point", "coordinates": [-71.7998889, 42.584097]}, "type": "Feature", "properties": {"startdate": "11/14/2016 0:00:00", "enddate": "1/14/2017 0:00:00", "sticker": "100254007", "contractor": "JAYMOR ENTERPRISES", "address": "48 Elm St, Fitchburg, MA 01420, USA", "formtype": "aq06", "exportdate": "12/8/2016 11:23:59"}}, {"geometry": {"type": "Point", "coordinates": [-70.8558047, 42.6183777]}, "type": "Feature", "properties": {"startdate": "11/11/2016 0:00:00", "enddate": "5/1/2017 0:00:00", "sticker": "100254010", "contractor": "SMS", "address": "545 Bay Rd, South Hamilton, MA 01982, USA", "formtype": "aq06", "exportdate": "12/8/2016 11:23:59"}}, {"geometry": {"type": "Point", "coordinates": [-71.0300713, 42.3796626]}, "type": "Feature", "properties": {"startdate": "12/1/2016 0:00:00", "enddate": "12/9/2016 0:00:00", "sticker": "100254012", "contractor": "HAYCON BUILDING", "address": "257 Princeton St, Boston, MA 02128, USA", "formtype": "aq06", "exportdate": "12/8/2016 11:23:59"}}, {"geometry": {"type": "Point", "coordinates": [-71.816976, 42.580927]}, "type": "Feature", "properties": {"startdate": "11/11/2016 0:00:00", "enddate": "1/14/2017 0:00:00", "sticker": "100254015", "contractor": "JAYMOR ENTERPRISES", "address": "43 Allen Pl, Fitchburg, MA 01420, USA", "formtype": "aq06", "exportdate": "12/8/2016 11:23:59"}}, {"geometry": {"type": "Point", "coordinates": [-71.79965399999999, 42.584043]}, "type": "Feature", "properties": {"startdate": "11/21/2016 0:00:00", "enddate": "1/14/2017 0:00:00", "sticker": "100254017", "contractor": "JAYMOR ENTERPRISE", "address": "28 Oliver St, Fitchburg, MA 01420, USA", "formtype": "aq06", "exportdate": "12/8/2016 11:23:59"}}, {"geometry": {"type": "Point", "coordinates": [-71.1006256, 42.3126768]}, "type": "Feature", "properties": {"startdate": "11/14/2016 0:00:00", "enddate": "5/31/2017 0:00:00", "sticker": "100254025", "contractor": "SMS", "address": "11 Iffley Rd, Jamaica Plain, MA 02130, USA", "formtype": "aq06", "exportdate": "12/8/2016 11:23:59"}}, {"geometry": {"type": "Point", "coordinates": [-71.11525759999999, 42.3504269]}, "type": "Feature", "properties": {"startdate": "11/20/2016 0:00:00", "enddate": "3/15/2017 0:00:00", "sticker": "100254026", "contractor": "ZVI CONSTRUCTION", "address": "International Students & Scholars Office, 888 Commonwealth Avenue, Brookline, MA 02446, USA", "formtype": "aq06", "exportdate": "12/8/2016 11:23:59"}}, {"geometry": {"type": "Point", "coordinates": [-71.100938, 42.312744]}, "type": "Feature", "properties": {"startdate": "11/14/2016 0:00:00", "enddate": "5/31/2017 0:00:00", "sticker": "100254030", "contractor": "SMS", "address": "3190 Washington St, Jamaica Plain, MA 02130, USA", "formtype": "aq06", "exportdate": "12/8/2016 11:23:59"}}, {"geometry": {"type": "Point", "coordinates": [-71.10114899999999, 42.312511]}, "type": "Feature", "properties": {"startdate": "11/14/2016 0:00:00", "enddate": "5/31/2017 0:00:00", "sticker": "100254042", "contractor": "SMS", "address": "3204 Washington St, Jamaica Plain, MA 02130, USA", "formtype": "aq06", "exportdate": "12/8/2016 11:23:59"}}, {"geometry": {"type": "Point", "coordinates": [-71.81562670000001, 42.5875573]}, "type": "Feature", "properties": {"startdate": "11/11/2016 0:00:00", "enddate": "1/14/2017 0:00:00", "sticker": "100254047", "contractor": "JAYMOR ENTERPRISE", "address": "34 West St, Fitchburg, MA 01420, USA", "formtype": "aq06", "exportdate": "12/8/2016 11:23:59"}}, {"geometry": {"type": "Point", "coordinates": [-71.7915993, 42.5819663]}, "type": "Feature", "properties": {"startdate": "11/17/2016 0:00:00", "enddate": "1/14/2017 0:00:00", "sticker": "100254049", "contractor": "JAYMOR ENTERPRISES", "address": "57 Main Street, Fitchburg, MA 01420, USA", "formtype": "aq06", "exportdate": "12/8/2016 11:23:59"}}, {"geometry": {"type": "Point", "coordinates": [-71.2686217, 42.458707]}, "type": "Feature", "properties": {"startdate": "11/14/2016 0:00:00", "enddate": "4/7/2017 0:00:00", "sticker": "100254059", "contractor": "SELECTIVE DEMO", "address": "244 Wood St, Lexington, MA 02420, USA", "formtype": "aq06", "exportdate": "12/8/2016 11:23:59"}}, {"geometry": {"type": "Point", "coordinates": [-71.104968, 42.3373982]}, "type": "Feature", "properties": {"startdate": "11/12/2016 0:00:00", "enddate": "6/1/2017 0:00:00", "sticker": "100254090", "contractor": "F L CAULFIELD SON", "address": "300 Longwood Ave, Boston, MA 02115, USA", "formtype": "aq06", "exportdate": "12/8/2016 11:23:59"}}, {"geometry": {"type": "Point", "coordinates": [-70.620398, 41.55963999999999]}, "type": "Feature", "properties": {"startdate": "11/14/2016 0:00:00", "enddate": "2/1/2017 0:00:00", "sticker": "100254091", "contractor": "JW DUBIS", "address": "228 Palmer Ave, Falmouth, MA 02540, USA", "formtype": "aq06", "exportdate": "12/8/2016 11:23:59"}}, {"geometry": {"type": "Point", "coordinates": [-71.111988, 42.3657895]}, "type": "Feature", "properties": {"startdate": "11/28/2016 0:00:00", "enddate": "12/30/2016 0:00:00", "sticker": "100254094", "contractor": "FIBER CONTROL", "address": "64 Magee St, Cambridge, MA 02139, USA", "formtype": "aq06", "exportdate": "12/8/2016 11:23:59"}}, {"geometry": {"type": "Point", "coordinates": [-72.58731209999999, 42.1003066]}, "type": "Feature", "properties": {"startdate": "11/15/2016 0:00:00", "enddate": "12/30/2016 0:00:00", "sticker": "100254127", "contractor": "JDC DEMO", "address": "95 State St, Springfield, MA 01103, USA", "formtype": "aq06", "exportdate": "12/8/2016 11:23:59"}}, {"geometry": {"type": "Point", "coordinates": [-71.2636905, 42.3896629]}, "type": "Feature", "properties": {"startdate": "11/17/2016 0:00:00", "enddate": "12/17/2016 0:00:00", "sticker": "100254138", "contractor": "NEW HAMPSHIRE DEMO", "address": "244 2nd Ave, Waltham, MA 02451, USA", "formtype": "aq06", "exportdate": "12/8/2016 11:23:59"}}, {"geometry": {"type": "Point", "coordinates": [-69.987678, 41.78133200000001]}, "type": "Feature", "properties": {"startdate": "11/21/2016 0:00:00", "enddate": "1/31/2018 0:00:00", "sticker": "100254142", "contractor": "DIG IT CONSTRUCTION", "address": "90 S Orleans Rd, Orleans, MA 02653, USA", "formtype": "aq06", "exportdate": "12/8/2016 11:23:59"}}, {"geometry": {"type": "Point", "coordinates": [-70.89312699999999, 42.521496]}, "type": "Feature", "properties": {"startdate": "11/14/2016 0:00:00", "enddate": "5/17/2017 0:00:00", "sticker": "100254149", "contractor": "SELECT DEMO", "address": "173 Essex St, Salem, MA 01970, USA", "formtype": "aq06", "exportdate": "12/8/2016 11:23:59"}}, {"geometry": {"type": "Point", "coordinates": [-71.805707, 42.579115]}, "type": "Feature", "properties": {"startdate": "11/15/2016 0:00:00", "enddate": "1/14/2017 0:00:00", "sticker": "100254176", "contractor": "JAYMOR ENTERPRISES", "address": "260 Rollstone St, Fitchburg, MA 01420, USA", "formtype": "aq06", "exportdate": "12/8/2016 11:23:59"}}, {"geometry": {"type": "Point", "coordinates": [-71.7977253, 42.58062109999999]}, "type": "Feature", "properties": {"startdate": "11/20/2016 0:00:00", "enddate": "1/14/2017 0:00:00", "sticker": "100254179", "contractor": "JAYMOR ENTERPRISES", "address": "50 Laurel St, Fitchburg, MA 01420, USA", "formtype": "aq06", "exportdate": "12/8/2016 11:23:59"}}, {"geometry": {"type": "Point", "coordinates": [-71.097433, 42.318961]}, "type": "Feature", "properties": {"startdate": "11/13/2016 0:00:00", "enddate": "12/5/2016 0:00:00", "sticker": "100254182", "contractor": "TIMBERLINE CONSTRUCTION", "address": "56 Dimock St, Roxbury, MA 02119, USA", "formtype": "aq06", "exportdate": "12/8/2016 11:23:59"}}, {"geometry": {"type": "Point", "coordinates": [-72.6511419, 42.195533]}, "type": "Feature", "properties": {"startdate": "11/18/2016 0:00:00", "enddate": "1/23/2017 0:00:00", "sticker": "100254188", "contractor": "UNIFIED CONSTRUCTION", "address": "303 Homestead Ave, Holyoke, MA 01040, USA", "formtype": "aq06", "exportdate": "12/8/2016 11:23:59"}}, {"geometry": {"type": "Point", "coordinates": [-70.0532913, 42.0307132]}, "type": "Feature", "properties": {"startdate": "11/14/2016 0:00:00", "enddate": "12/30/2016 0:00:00", "sticker": "100254192", "contractor": "ENVIROVANTAGE", "address": "Highlands Center, Provincetown, MA 02657, USA", "formtype": "aq06", "exportdate": "12/8/2016 11:23:59"}}, {"geometry": {"type": "Point", "coordinates": [-71.24255200000002, 42.334397]}, "type": "Feature", "properties": {"startdate": "11/16/2016 0:00:00", "enddate": "12/31/2017 0:00:00", "sticker": "100254216", "contractor": "NG ENVIRONMENTAL CONTRACTORS", "address": "160 Stanton Ave, Auburndale, MA 02466, USA", "formtype": "aq06", "exportdate": "12/8/2016 11:23:59"}}, {"geometry": {"type": "Point", "coordinates": [-71.1270917, 42.382977]}, "type": "Feature", "properties": {"startdate": "11/15/2016 0:00:00", "enddate": "12/31/2016 0:00:00", "sticker": "100254238", "contractor": "THE AULSON", "address": "79 Garden St, Cambridge, MA 02138, USA", "formtype": "aq06", "exportdate": "12/8/2016 11:23:59"}}, {"geometry": {"type": "Point", "coordinates": [-71.0488235, 42.3602512]}, "type": "Feature", "properties": {"startdate": "11/16/2016 0:00:00", "enddate": "2/3/2017 0:00:00", "sticker": "100254243R3", "contractor": "DECTAM", "address": "Custom House Block, 66 Long Wharf, Boston, MA 02110, USA", "formtype": "aq06", "exportdate": "12/19/2016 10:09:11"}}, {"geometry": {"type": "Point", "coordinates": [-71.1323929, 42.3400514]}, "type": "Feature", "properties": {"startdate": "11/28/2016 0:00:00", "enddate": "4/30/2017 0:00:00", "sticker": "100254249", "contractor": "RPG CLEANING", "address": "1566 Beacon St, Brookline, MA 02446, USA", "formtype": "aq06", "exportdate": "12/8/2016 11:23:59"}}, {"geometry": {"type": "Point", "coordinates": [-72.614603, 42.191752]}, "type": "Feature", "properties": {"startdate": "11/18/2016 0:00:00", "enddate": "6/30/2017 0:00:00", "sticker": "100254253", "contractor": "ASSOCIATED BUILDERS", "address": "686 Main St, Holyoke, MA 01040, USA", "formtype": "aq06", "exportdate": "12/8/2016 11:23:59"}}, {"geometry": {"type": "Point", "coordinates": [-71.0186593, 42.3615029]}, "type": "Feature", "properties": {"startdate": "11/14/2016 0:00:00", "enddate": "12/30/2017 0:00:00", "sticker": "100254255", "contractor": "BOND BROS", "address": "Logan Airport Terminal B, Boston Logan International Airport, 1 Harborside Dr, Boston, MA 02128, USA", "formtype": "aq06", "exportdate": "12/8/2016 11:23:59"}}, {"geometry": {"type": "Point", "coordinates": [-72.5195967, 42.3791105]}, "type": "Feature", "properties": {"startdate": "11/17/2016 0:00:00", "enddate": "8/31/2018 0:00:00", "sticker": "100254282", "contractor": "ASSOCIATED BUILDING WRECKERS", "address": "1 E Pleasant St, Amherst, MA 01002, USA", "formtype": "aq06", "exportdate": "12/8/2016 11:23:59"}}, {"geometry": {"type": "Point", "coordinates": [-71.2494485, 42.3692212]}, "type": "Feature", "properties": {"startdate": "11/15/2016 0:00:00", "enddate": "12/31/2016 0:00:00", "sticker": "100254290", "contractor": "TURNER CONSTRUCTION", "address": "9 Hope Ave, Waltham, MA 02453, USA", "formtype": "aq06", "exportdate": "12/8/2016 11:23:59"}}, {"geometry": {"type": "Point", "coordinates": [-71.0514482, 42.3633957]}, "type": "Feature", "properties": {"startdate": "11/21/2016 0:00:00", "enddate": "11/21/2017 0:00:00", "sticker": "100254294", "contractor": "JDC DEMO", "address": "221 Commercial Street, Boston, MA 02109, USA", "formtype": "aq06", "exportdate": "12/8/2016 11:23:59"}}, {"geometry": {"type": "Point", "coordinates": [-71.132756, 42.5568529]}, "type": "Feature", "properties": {"startdate": "10/11/2016 0:00:00", "enddate": "2/27/2017 0:00:00", "sticker": "100254305", "contractor": "COMMODORE BUILDERS", "address": "200 Riverpark Dr, North Reading, MA 01864, USA", "formtype": "aq06", "exportdate": "12/8/2016 11:23:59"}}, {"geometry": {"type": "Point", "coordinates": [-70.8904609, 42.5056088]}, "type": "Feature", "properties": {"startdate": "11/18/2016 0:00:00", "enddate": "12/23/2016 0:00:00", "sticker": "100254364", "contractor": "HOPE TRUCKING DEMO", "address": "331 Lafayette St, Salem, MA 01970, USA", "formtype": "aq06", "exportdate": "12/8/2016 11:23:59"}}, {"geometry": {"type": "Point", "coordinates": [-70.0532913, 42.0307132]}, "type": "Feature", "properties": {"startdate": "11/21/2016 0:00:00", "enddate": "12/30/2016 0:00:00", "sticker": "100254375", "contractor": "ENVIROVANTAGE", "address": "Highlands Center, Provincetown, MA 02657, USA", "formtype": "aq06", "exportdate": "12/8/2016 11:23:59"}}, {"geometry": {"type": "Point", "coordinates": [-71.08586950000002, 42.3621497]}, "type": "Feature", "properties": {"startdate": "1/1/2017 0:00:00", "enddate": "4/17/2020 0:00:00", "sticker": "100254499", "contractor": "TURNER CONSTRUCTION", "address": "Suffolk Bldg, 292 Main St, Cambridge, MA 02142, USA", "formtype": "aq06", "exportdate": "12/8/2016 11:23:59"}}, {"geometry": {"type": "Point", "coordinates": [-71.0854739, 42.3621025]}, "type": "Feature", "properties": {"startdate": "1/1/2017 0:00:00", "enddate": "4/17/2020 0:00:00", "sticker": "100254506", "contractor": "TURNER CONSTRUCTION", "address": "E39, 290 Main St, Cambridge, MA 02142, USA", "formtype": "aq06", "exportdate": "12/8/2016 11:23:59"}}, {"geometry": {"type": "Point", "coordinates": [-70.0532913, 42.0307132]}, "type": "Feature", "properties": {"startdate": "11/21/2016 0:00:00", "enddate": "12/30/2016 0:00:00", "sticker": "100254509", "contractor": "ENVIRO STAFFING SOLUTIONS", "address": "Highlands Center, Provincetown, MA 02657, USA", "formtype": "aq06", "exportdate": "12/8/2016 11:23:59"}}, {"geometry": {"type": "Point", "coordinates": [-71.07377249999999, 42.3344232]}, "type": "Feature", "properties": {"startdate": "11/19/2016 0:00:00", "enddate": "9/1/2018 0:00:00", "sticker": "100254549", "contractor": "SUFFOLK CONSTRUCTION", "address": "840 Harrison Ave, Boston, MA 02118, USA", "formtype": "aq06", "exportdate": "12/8/2016 11:23:59"}}, {"geometry": {"type": "Point", "coordinates": [-73.111678, 42.629601]}, "type": "Feature", "properties": {"startdate": "11/23/2016 0:00:00", "enddate": "12/9/2016 0:00:00", "sticker": "100254557", "contractor": "AMERICAN ENVIRONMENTAL", "address": "60 N Summer St, Adams, MA 01220, USA", "formtype": "aq06", "exportdate": "12/8/2016 11:23:59"}}, {"geometry": {"type": "Point", "coordinates": [-73.11462, 42.622403]}, "type": "Feature", "properties": {"startdate": "11/23/2016 0:00:00", "enddate": "12/16/2016 0:00:00", "sticker": "100254569R1", "contractor": "AMERICAN ENVIRONMENTAL", "address": "62 Summer St, Adams, MA 01220, USA", "formtype": "aq06", "exportdate": "12/19/2016 10:09:11"}}, {"geometry": {"type": "Point", "coordinates": [-71.0578469, 42.3577323]}, "type": "Feature", "properties": {"startdate": "11/20/2016 0:00:00", "enddate": "12/20/2016 0:00:00", "sticker": "100254591", "contractor": "ZVI CONSTRUCTION", "address": "262 Washington St, Boston, MA 02108, USA", "formtype": "aq06", "exportdate": "12/8/2016 11:23:59"}}, {"geometry": {"type": "Point", "coordinates": [-72.5300216, 42.1969544]}, "type": "Feature", "properties": {"startdate": "11/14/2016 0:00:00", "enddate": "11/18/2016 0:00:00", "sticker": "100254602", "contractor": "PATROIT ENVIRONMENTAL", "address": "Westover Air Reserve Base, 57 Patriot Ave, Chicopee, MA 01022, USA", "formtype": "aq06", "exportdate": "12/8/2016 11:23:59"}}, {"geometry": {"type": "Point", "coordinates": [-71.1161339, 42.3800009]}, "type": "Feature", "properties": {"startdate": "11/28/2016 0:00:00", "enddate": "12/12/2016 0:00:00", "sticker": "100254612", "contractor": "DECTAM", "address": "Engineering Science Laboratory, 58 Oxford St, Cambridge, MA 02138, USA", "formtype": "aq06", "exportdate": "12/8/2016 11:23:59"}}, {"geometry": {"type": "Point", "coordinates": [-71.106273, 42.337394]}, "type": "Feature", "properties": {"startdate": "12/1/2016 0:00:00", "enddate": "10/31/2017 0:00:00", "sticker": "100254616", "contractor": "G GREENE CONSTRUCTION", "address": "17-25 Blackfan St, Boston, MA 02115, USA", "formtype": "aq06", "exportdate": "12/8/2016 11:23:59"}}, {"geometry": {"type": "Point", "coordinates": [-71.0608393, 42.3584444]}, "type": "Feature", "properties": {"startdate": "11/20/2016 0:00:00", "enddate": "1/27/2017 0:00:00", "sticker": "100254623", "contractor": "LEE KENNEDY", "address": "One Beacon Street, 1 Beacon St, Boston, MA 02108, USA", "formtype": "aq06", "exportdate": "12/8/2016 11:23:59"}}, {"geometry": {"type": "Point", "coordinates": [-71.0078073, 42.0775892]}, "type": "Feature", "properties": {"startdate": "11/7/2016 0:00:00", "enddate": "5/7/2017 0:00:00", "sticker": "100254649", "contractor": "JOHN KYNE", "address": "86 Summer St, Brockton, MA 02302, USA", "formtype": "aq06", "exportdate": "12/8/2016 11:23:59"}}, {"geometry": {"type": "Point", "coordinates": [-71.0649894, 42.350853]}, "type": "Feature", "properties": {"startdate": "12/16/2016 0:00:00", "enddate": "12/16/2018 0:00:00", "sticker": "100254667", "contractor": "LEE KENNEDY", "address": "240 Tremont St, Boston, MA 02116, USA", "formtype": "aq06", "exportdate": "12/8/2016 11:23:59"}}, {"geometry": {"type": "Point", "coordinates": [-71.1390914, 42.5150982]}, "type": "Feature", "properties": {"startdate": "11/25/2016 0:00:00", "enddate": "2/28/2017 0:00:00", "sticker": "100254676", "contractor": "PIMENTEL CONSTRUCTION", "address": "110 Commerce Way, Woburn, MA 01801, USA", "formtype": "aq06", "exportdate": "12/8/2016 11:23:59"}}, {"geometry": {"type": "Point", "coordinates": [-71.094448, 42.360615]}, "type": "Feature", "properties": {"startdate": "12/15/2016 0:00:00", "enddate": "8/1/2107 0:00:00", "sticker": "100254678", "contractor": "LEE KENNEDY", "address": "73 Vassar St, Cambridge, MA 02139, USA", "formtype": "aq06", "exportdate": "12/8/2016 11:23:59"}}, {"geometry": {"type": "Point", "coordinates": [-71.1291713, 42.204151]}, "type": "Feature", "properties": {"startdate": "11/24/2016 0:00:00", "enddate": "2/28/2017 0:00:00", "sticker": "100254717", "contractor": "SELECT DEMO", "address": "120 Royall St, Canton, MA 02021, USA", "formtype": "aq06", "exportdate": "12/8/2016 11:23:59"}}, {"geometry": {"type": "Point", "coordinates": [-71.80740899999999, 42.256677]}, "type": "Feature", "properties": {"startdate": "11/14/2016 0:00:00", "enddate": "11/25/2016 0:00:00", "sticker": "100254764", "contractor": "PATRIOTS ENVIRONMENTAL", "address": "35 Hermon St, Worcester, MA 01610, USA", "formtype": "aq06", "exportdate": "12/8/2016 11:23:59"}}, {"geometry": {"type": "Point", "coordinates": [-70.9407713, 42.68355700000001]}, "type": "Feature", "properties": {"startdate": "11/28/2016 0:00:00", "enddate": "11/30/2016 0:00:00", "sticker": "100254782", "contractor": "CHARTER CONTRACTING", "address": "279 Newbury Rd, Rowley, MA 01969, USA", "formtype": "aq06", "exportdate": "12/8/2016 11:23:59"}}, {"geometry": {"type": "Point", "coordinates": [-71.1218464, 42.3522769]}, "type": "Feature", "properties": {"startdate": "11/28/2016 0:00:00", "enddate": "11/27/2017 0:00:00", "sticker": "100254785", "contractor": "CHAPMAN CONSTRUCTION", "address": "1033 Commonwealth Avenue, Boston, MA 02215, USA", "formtype": "aq06", "exportdate": "12/8/2016 11:23:59"}}, {"geometry": {"type": "Point", "coordinates": [-71.1321629, 42.5556182]}, "type": "Feature", "properties": {"startdate": "11/28/2016 0:00:00", "enddate": "6/30/2017 0:00:00", "sticker": "100254801", "contractor": "REGIONAL INDUSTRIAL", "address": "300 Riverpark Dr, North Reading, MA 01864, USA", "formtype": "aq06", "exportdate": "12/8/2016 11:23:59"}}, {"geometry": {"type": "Point", "coordinates": [-71.3702, 42.2427995]}, "type": "Feature", "properties": {"startdate": "11/28/2016 0:00:00", "enddate": "1/1/2017 0:00:00", "sticker": "100254818", "contractor": "SMS", "address": "2 N Main St, Sherborn, MA 01770, USA", "formtype": "aq06", "exportdate": "12/8/2016 11:23:59"}}, {"geometry": {"type": "Point", "coordinates": [-71.0854872, 42.3465008]}, "type": "Feature", "properties": {"startdate": "11/28/2016 0:00:00", "enddate": "2/21/2018 0:00:00", "sticker": "100254823", "contractor": "STRUCTURETONE", "address": "40 Dalton St, Boston, MA 02115, USA", "formtype": "aq06", "exportdate": "12/8/2016 11:23:59"}}, {"geometry": {"type": "Point", "coordinates": [-71.1269761, 42.3801338]}, "type": "Feature", "properties": {"startdate": "11/29/2016 0:00:00", "enddate": "6/30/2017 0:00:00", "sticker": "100254834", "contractor": "NORTHSTAR CONTRACTING", "address": "40 Concord Ave, Cambridge, MA 02138, USA", "formtype": "aq06", "exportdate": "12/8/2016 11:23:59"}}, {"geometry": {"type": "Point", "coordinates": [-71.00225809999999, 42.2498942]}, "type": "Feature", "properties": {"startdate": "12/5/2016 0:00:00", "enddate": "2/24/2017 0:00:00", "sticker": "100254897", "contractor": "JDC DEMO", "address": "21 Chestnut St, Quincy, MA 02169, USA", "formtype": "aq06", "exportdate": "12/8/2016 11:23:59"}}, {"geometry": {"type": "Point", "coordinates": [-72.5259982, 42.3872501]}, "type": "Feature", "properties": {"startdate": "11/28/2016 0:00:00", "enddate": "12/31/2016 0:00:00", "sticker": "100254919", "contractor": "ALTERATIONS DEPT", "address": "161 Presidents Dr, Amherst, MA 01002, USA", "formtype": "aq06", "exportdate": "12/8/2016 11:23:59"}}, {"geometry": {"type": "Point", "coordinates": [-71.1560414, 42.200166]}, "type": "Feature", "properties": {"startdate": "11/29/2016 0:00:00", "enddate": "2/28/2017 0:00:00", "sticker": "100254940", "contractor": "REGIONAL INDUSTRIAL", "address": "345 University Ave, Westwood, MA 02090, USA", "formtype": "aq06", "exportdate": "12/8/2016 11:23:59"}}, {"geometry": {"type": "Point", "coordinates": [-70.32007779999999, 41.6783716]}, "type": "Feature", "properties": {"startdate": "11/30/2016 0:00:00", "enddate": "12/22/2016 0:00:00", "sticker": "100254963", "contractor": "AMERICAN CONSTRUCTION", "address": "1545 Iyannough Rd, Hyannis, MA 02601, USA", "formtype": "aq06", "exportdate": "12/8/2016 11:23:59"}}, {"geometry": {"type": "Point", "coordinates": [-71.1557038, 42.1988957]}, "type": "Feature", "properties": {"startdate": "11/17/2016 0:00:00", "enddate": "11/23/2016 0:00:00", "sticker": "100254427", "contractor": "EF ENVIRONMENTAL", "address": "378 University Ave, Westwood, MA 02090, USA", "formtype": "anf001", "exportdate": "12/8/2016 11:23:35"}}, {"geometry": {"type": "Point", "coordinates": [-73.26556599999999, 42.6515445]}, "type": "Feature", "properties": {"startdate": "11/2/2016 0:00:00", "enddate": "11/8/2016 0:00:00", "sticker": "100253095R2", "contractor": "BAYSTATE CONTRACTING", "address": "759 Hancock Rd, Williamstown, MA 01267, USA", "formtype": "anf001", "exportdate": "12/8/2016 11:23:35"}}, {"geometry": {"type": "Point", "coordinates": [-71.243241, 42.452405]}, "type": "Feature", "properties": {"startdate": "11/18/2016 0:00:00", "enddate": "11/18/2016 0:00:00", "sticker": "100254438", "contractor": "NATIONAL ABATEMENT", "address": "78 Hill St, Lexington, MA 02421, USA", "formtype": "anf001", "exportdate": "12/8/2016 11:23:35"}}, {"geometry": {"type": "Point", "coordinates": [-71.2464373, 42.3306338]}, "type": "Feature", "properties": {"startdate": "12/26/2016 0:00:00", "enddate": "1/24/2017 0:00:00", "sticker": "100254440R1", "contractor": "SEN CAM", "address": "2014 Washington St, Newton, MA 02462, USA", "formtype": "anf001", "exportdate": "12/19/2016 10:08:48"}}, {"geometry": {"type": "Point", "coordinates": [-71.39121519999999, 42.29130809999999]}, "type": "Feature", "properties": {"startdate": "11/18/2016 0:00:00", "enddate": "11/19/2016 0:00:00", "sticker": "100254443", "contractor": "NATIONAL ABATEMENT", "address": "130 Hartford St, Natick, MA 01760, USA", "formtype": "anf001", "exportdate": "12/8/2016 11:23:35"}}, {"geometry": {"type": "Point", "coordinates": [-71.1995943, 42.4444068]}, "type": "Feature", "properties": {"startdate": "11/25/2016 0:00:00", "enddate": "11/25/2016 0:00:00", "sticker": "100254618R1", "contractor": "FJC ENTERPRISES", "address": "146 Maple St, Lexington, MA 02420, USA", "formtype": "anf001", "exportdate": "12/9/2016 15:06:29"}}, {"geometry": {"type": "Point", "coordinates": [-71.219838, 42.46169500000001]}, "type": "Feature", "properties": {"startdate": "11/16/2016 0:00:00", "enddate": "11/17/2018 0:00:00", "sticker": "100253745R2", "contractor": "NEW ENGLAND ASBESTOS ABATEMENT", "address": "75 Adams St, Lexington, MA 02420, USA", "formtype": "anf001", "exportdate": "12/8/2016 11:23:35"}}, {"geometry": {"type": "Point", "coordinates": [-71.0945685, 42.4063273]}, "type": "Feature", "properties": {"startdate": "11/8/2016 0:00:00", "enddate": "11/11/8016 0:00:00", "sticker": "100253771R1", "contractor": "ACCOLADE ENVIRO", "address": "3680 Mystic Valley Pkwy, Medford, MA 02155, USA", "formtype": "anf001", "exportdate": "12/8/2016 11:23:35"}}, {"geometry": {"type": "Point", "coordinates": [-71.0097183, 42.3934913]}, "type": "Feature", "properties": {"startdate": "12/5/2016 0:00:00", "enddate": "1/30/2017 0:00:00", "sticker": "100253379R1", "contractor": "CUTTING EDGE ENVIRONMENTAL", "address": "232 Waldemar Ave, Boston, MA 02128, USA", "formtype": "anf001", "exportdate": "12/8/2016 11:23:35"}}, {"geometry": {"type": "Point", "coordinates": [-72.5976842, 42.1073954]}, "type": "Feature", "properties": {"startdate": "11/21/2016 0:00:00", "enddate": "11/26/2016 0:00:00", "sticker": "100254329", "contractor": "ELITE ENVIRONMENTAL SOLUTIONS", "address": "1985 Main St, Springfield, MA 01103, USA", "formtype": "anf001", "exportdate": "12/8/2016 11:23:35"}}, {"geometry": {"type": "Point", "coordinates": [-71.1716943, 42.3552885]}, "type": "Feature", "properties": {"startdate": "11/23/2016 0:00:00", "enddate": "11/23/2016 0:00:00", "sticker": "100254334", "contractor": "S S ABATEMENT", "address": "64 Burton St, Boston, MA 02135, USA", "formtype": "anf001", "exportdate": "12/8/2016 11:23:35"}}, {"geometry": {"type": "Point", "coordinates": [-70.9373631, 42.52141630000001]}, "type": "Feature", "properties": {"startdate": "11/7/2016 0:00:00", "enddate": "11/11/2016 0:00:00", "sticker": "100254337", "contractor": "NORTHEAST REMEDIATION", "address": "227 Washington St, Peabody, MA 01960, USA", "formtype": "anf001", "exportdate": "12/8/2016 11:23:35"}}, {"geometry": {"type": "Point", "coordinates": [-71.0088912, 42.3934688]}, "type": "Feature", "properties": {"startdate": "12/5/2016 0:00:00", "enddate": "1/30/2017 0:00:00", "sticker": "100253374R1", "contractor": "CUTTING EDGE ENVIRONMENTAL", "address": "214 Waldemar Ave, Boston, MA 02128, USA", "formtype": "anf001", "exportdate": "12/8/2016 11:23:35"}}, {"geometry": {"type": "Point", "coordinates": [-71.0080873, 42.3933241]}, "type": "Feature", "properties": {"startdate": "12/5/2016 0:00:00", "enddate": "1/30/2017 0:00:00", "sticker": "100253369R1", "contractor": "CUTTING EDGE ENVIRONMENTAL", "address": "196 Waldemar Ave, Boston, MA 02128, USA", "formtype": "anf001", "exportdate": "12/8/2016 11:23:35"}}, {"geometry": {"type": "Point", "coordinates": [-71.0615108, 42.3501304]}, "type": "Feature", "properties": {"startdate": "11/16/2016 0:00:00", "enddate": "1/16/2017 0:00:00", "sticker": "100252087R3", "contractor": "THE AULSON", "address": "136 Harrison Ave, Boston, MA 02111, USA", "formtype": "anf001", "exportdate": "12/19/2016 10:08:48"}}, {"geometry": {"type": "Point", "coordinates": [-72.664665, 42.331577]}, "type": "Feature", "properties": {"startdate": "11/28/2016 0:00:00", "enddate": "11/30/2016 0:00:00", "sticker": "100254937R1", "contractor": "UNITED", "address": "29 Beacon St, Florence, MA 01062, USA", "formtype": "anf001", "exportdate": "12/9/2016 15:06:29"}}, {"geometry": {"type": "Point", "coordinates": [-71.213932, 42.033921]}, "type": "Feature", "properties": {"startdate": "11/16/2016 0:00:00", "enddate": "11/18/2016 0:00:00", "sticker": "100253871R2", "contractor": "AIR SAFE", "address": "90 Pratt St, Mansfield, MA 02048, USA", "formtype": "anf001", "exportdate": "12/8/2016 11:23:35"}}, {"geometry": {"type": "Point", "coordinates": [-71.3604642, 42.6194047]}, "type": "Feature", "properties": {"startdate": "10/12/2016 0:00:00", "enddate": "11/15/2016 0:00:00", "sticker": "100251912R3", "contractor": "FJC ENTERPRISES", "address": "40 Parkhurst Rd, Chelmsford, MA 01824, USA", "formtype": "anf001", "exportdate": "12/8/2016 11:23:35"}}, {"geometry": {"type": "Point", "coordinates": [-72.6041377, 42.1754924]}, "type": "Feature", "properties": {"startdate": "12/8/2016 0:00:00", "enddate": "12/8/2016 0:00:00", "sticker": "100254943", "contractor": "ABIDE", "address": "97 Mary St, Chicopee, MA 01020, USA", "formtype": "anf001", "exportdate": "12/8/2016 11:23:35"}}, {"geometry": {"type": "Point", "coordinates": [-71.100956, 42.392588]}, "type": "Feature", "properties": {"startdate": "11/17/2016 0:00:00", "enddate": "11/30/2016 0:00:00", "sticker": "100253033R2", "contractor": "THE AULSON", "address": "436 Medford St, Somerville, MA 02145, USA", "formtype": "anf001", "exportdate": "12/8/2016 11:23:35"}}, {"geometry": {"type": "Point", "coordinates": [-71.0949105, 42.4091735]}, "type": "Feature", "properties": {"startdate": "11/28/2016 0:00:00", "enddate": "12/16/2016 0:00:00", "sticker": "100254945", "contractor": "ACCOLADE ENVIRO", "address": "East Building, 3620 Mystic Valley Pkwy, Medford, MA 02155, USA", "formtype": "anf001", "exportdate": "12/8/2016 11:23:35"}}, {"geometry": {"type": "Point", "coordinates": [-71.1153415, 42.3612399]}, "type": "Feature", "properties": {"startdate": "11/10/2016 0:00:00", "enddate": "11/14/2016 0:00:00", "sticker": "100254527R1", "contractor": "CUTTING EDGE ENVIRONMENTAL", "address": "812 Memorial Dr, Cambridge, MA 02139, USA", "formtype": "anf001", "exportdate": "12/8/2016 11:23:35"}}, {"geometry": {"type": "Point", "coordinates": [-73.290025, 42.44235]}, "type": "Feature", "properties": {"startdate": "11/28/2016 0:00:00", "enddate": "11/29/2016 0:00:00", "sticker": "100254575", "contractor": "BARILE ENVIRONMENTAL", "address": "50 Oswald Ave, Pittsfield, MA 01201, USA", "formtype": "anf001", "exportdate": "12/8/2016 11:23:35"}}, {"geometry": {"type": "Point", "coordinates": [-71.4108281, 42.2803439]}, "type": "Feature", "properties": {"startdate": "11/21/2016 0:00:00", "enddate": "12/7/2016 0:00:00", "sticker": "100254622", "contractor": "ONE SOURCE ENVIRONMENTAL", "address": "100 Clinton St, Framingham, MA 01702, USA", "formtype": "anf001", "exportdate": "12/8/2016 11:23:35"}}, {"geometry": {"type": "Point", "coordinates": [-71.1153415, 42.3612399]}, "type": "Feature", "properties": {"startdate": "11/24/2016 0:00:00", "enddate": "12/24/2016 0:00:00", "sticker": "100254621", "contractor": "CUTTING EDGE ENVIRONMENTAL", "address": "812 Memorial Dr, Cambridge, MA 02139, USA", "formtype": "anf001", "exportdate": "12/8/2016 11:23:35"}}, {"geometry": {"type": "Point", "coordinates": [-71.1159535, 42.2870125]}, "type": "Feature", "properties": {"startdate": "11/21/2016 0:00:00", "enddate": "11/21/2016 0:00:00", "sticker": "100254651", "contractor": "ADVANCED ABATEMENT INSULATION", "address": "71 Wyvern St, Roslindale, MA 02131, USA", "formtype": "anf001", "exportdate": "12/8/2016 11:23:35"}}, {"geometry": {"type": "Point", "coordinates": [-71.23179499999999, 42.28237499999999]}, "type": "Feature", "properties": {"startdate": "11/23/2016 0:00:00", "enddate": "11/25/2016 0:00:00", "sticker": "100254722", "contractor": "FEDERAL ENVIRONMENTAL", "address": "61 Fair Oaks Park, Needham, MA 02492, USA", "formtype": "anf001", "exportdate": "12/8/2016 11:23:35"}}, {"geometry": {"type": "Point", "coordinates": [-71.1740293, 42.4109928]}, "type": "Feature", "properties": {"startdate": "12/10/2016 0:00:00", "enddate": "12/17/2016 0:00:00", "sticker": "100254067R1", "contractor": "DUDLEY", "address": "178 Newport St, Arlington, MA 02476, USA", "formtype": "anf001", "exportdate": "12/19/2016 10:08:48"}}, {"geometry": {"type": "Point", "coordinates": [-71.603748, 42.29872839999999]}, "type": "Feature", "properties": {"startdate": "11/28/2016 0:00:00", "enddate": "12/15/2016 0:00:00", "sticker": "100250986R3", "contractor": "STRATEGIC ENVIRONMENTAL", "address": "288 Lyman St, Westborough, MA 01581, USA", "formtype": "anf001", "exportdate": "12/9/2016 15:06:29"}}, {"geometry": {"type": "Point", "coordinates": [-71.1131727, 42.5217341]}, "type": "Feature", "properties": {"startdate": "11/28/2016 0:00:00", "enddate": "11/28/2016 0:00:00", "sticker": "100254480", "contractor": "S S ABATEMENT", "address": "16 Temple St, Reading, MA 01867, USA", "formtype": "anf001", "exportdate": "12/8/2016 11:23:35"}}, {"geometry": {"type": "Point", "coordinates": [-71.1598004, 42.7106926]}, "type": "Feature", "properties": {"startdate": "11/18/2016 0:00:00", "enddate": "11/18/2016 0:00:00", "sticker": "100254477", "contractor": "EF ENVIRONMENTAL", "address": "169 Haverhill St, Lawrence, MA 01840, USA", "formtype": "anf001", "exportdate": "12/8/2016 11:23:35"}}, {"geometry": {"type": "Point", "coordinates": [-72.546115, 42.113183]}, "type": "Feature", "properties": {"startdate": "11/21/2016 0:00:00", "enddate": "11/21/2016 0:00:00", "sticker": "100254476", "contractor": "SPRINGFIELD ABATEMENT", "address": "11 Providence St, Springfield, MA 01109, USA", "formtype": "anf001", "exportdate": "12/8/2016 11:23:35"}}, {"geometry": {"type": "Point", "coordinates": [-73.3702397, 42.3367229]}, "type": "Feature", "properties": {"startdate": "11/28/2016 0:00:00", "enddate": "12/2/2016 0:00:00", "sticker": "100254757R1", "contractor": "GEM ENVIRONMENTAL", "address": "11 Albany Rd, West Stockbridge, MA 01266, USA", "formtype": "anf001", "exportdate": "12/8/2016 11:23:35"}}, {"geometry": {"type": "Point", "coordinates": [-71.133881, 42.650157]}, "type": "Feature", "properties": {"startdate": "11/15/2016 0:00:00", "enddate": "11/15/2016 0:00:00", "sticker": "100254784R1", "contractor": "NON LICENSED REMOVAL", "address": "80 Bartlet St, Andover, MA 01810, USA", "formtype": "anf001", "exportdate": "12/8/2016 11:23:35"}}, {"geometry": {"type": "Point", "coordinates": [-71.4683268, 42.2619815]}, "type": "Feature", "properties": {"startdate": "11/16/2016 0:00:00", "enddate": "11/22/2016 0:00:00", "sticker": "100254805R3", "contractor": "ENVIRONMENTAL RESPONSE", "address": "25 Pleasant St, Ashland, MA 01721, USA", "formtype": "anf001", "exportdate": "12/9/2016 15:06:29"}}, {"geometry": {"type": "Point", "coordinates": [-71.0667723, 42.3949532]}, "type": "Feature", "properties": {"startdate": "9/19/2016 0:00:00", "enddate": "12/31/2016 0:00:00", "sticker": "100250458R6", "contractor": "NEW ROADS ENVIRONMENTAL", "address": "1 Horizon Way, Everett, MA 02149, USA", "formtype": "anf001", "exportdate": "12/19/2016 10:08:48"}}, {"geometry": {"type": "Point", "coordinates": [-71.49092499999999, 42.300681]}, "type": "Feature", "properties": {"startdate": "12/5/2016 0:00:00", "enddate": "12/23/2016 0:00:00", "sticker": "100254807R1", "contractor": "FJC ENTERPRISES", "address": "51 New York Ave, Framingham, MA 01701, USA", "formtype": "anf001", "exportdate": "12/9/2016 15:06:29"}}, {"geometry": {"type": "Point", "coordinates": [-71.05638929999999, 42.3575594]}, "type": "Feature", "properties": {"startdate": "6/20/2016 0:00:00", "enddate": "12/31/2016 0:00:00", "sticker": "100245009R6", "contractor": "NEW ROADS ENVIRONMENTAL", "address": "33 Congress St, Boston, MA 02109, USA", "formtype": "anf001", "exportdate": "12/19/2016 10:08:48"}}, {"geometry": {"type": "Point", "coordinates": [-71.2529746, 42.3790706]}, "type": "Feature", "properties": {"startdate": "11/28/2016 0:00:00", "enddate": "12/6/2016 0:00:00", "sticker": "100254806R2", "contractor": "FJC ENTERPRISES", "address": "42 Prospect Hill Rd, Waltham, MA 02451, USA", "formtype": "anf001", "exportdate": "12/19/2016 10:08:48"}}, {"geometry": {"type": "Point", "coordinates": [-71.13830659999999, 42.64638420000001]}, "type": "Feature", "properties": {"startdate": "11/29/2016 0:00:00", "enddate": "1/27/2017 0:00:00", "sticker": "100254935", "contractor": "DECTAM", "address": "17 Old Campus Rd, Andover, MA 01810, USA", "formtype": "anf001", "exportdate": "12/8/2016 11:23:35"}}, {"geometry": {"type": "Point", "coordinates": [-71.140851, 42.658996]}, "type": "Feature", "properties": {"startdate": "11/16/2016 0:00:00", "enddate": "11/16/2016 0:00:00", "sticker": "100254948", "contractor": "ABEST ABATEMENT", "address": "21 High St, Andover, MA 01810, USA", "formtype": "anf001", "exportdate": "12/8/2016 11:23:35"}}, {"geometry": {"type": "Point", "coordinates": [-71.832448, 42.278167]}, "type": "Feature", "properties": {"startdate": "11/23/2016 0:00:00", "enddate": "11/23/2016 0:00:00", "sticker": "100254723", "contractor": "WALSH ENVIRONMENTAL", "address": "54 Beeching St, Worcester, MA 01602, USA", "formtype": "anf001", "exportdate": "12/8/2016 11:23:35"}}, {"geometry": {"type": "Point", "coordinates": [-71.82240399999999, 42.271083]}, "type": "Feature", "properties": {"startdate": "11/9/2016 0:00:00", "enddate": "11/9/2016 0:00:00", "sticker": "100254724", "contractor": "WALSH ENVIRONMENTAL", "address": "9 Suburban Rd, Worcester, MA 01602, USA", "formtype": "anf001", "exportdate": "12/8/2016 11:23:35"}}, {"geometry": {"type": "Point", "coordinates": [-71.1829889, 42.3890878]}, "type": "Feature", "properties": {"startdate": "11/23/2016 0:00:00", "enddate": "11/24/2016 0:00:00", "sticker": "100254060", "contractor": "SORIANO ENVIRONMENTAL", "address": "129 Waverley St, Belmont, MA 02478, USA", "formtype": "anf001", "exportdate": "12/8/2016 11:23:35"}}, {"geometry": {"type": "Point", "coordinates": [-71.11335, 41.833788]}, "type": "Feature", "properties": {"startdate": "11/12/2016 0:00:00", "enddate": "11/12/2016 0:00:00", "sticker": "100254770", "contractor": "PREMIER ABATEMENTLABOR", "address": "135 Center St, Dighton, MA 02715, USA", "formtype": "anf001", "exportdate": "12/8/2016 11:23:35"}}, {"geometry": {"type": "Point", "coordinates": [-71.3537638, 42.2780386]}, "type": "Feature", "properties": {"startdate": "12/1/2016 0:00:00", "enddate": "12/1/2016 0:00:00", "sticker": "100254777", "contractor": "PETER GREIFER ENTERPRISES", "address": "50 High St, Natick, MA 01760, USA", "formtype": "anf001", "exportdate": "12/8/2016 11:23:35"}}, {"geometry": {"type": "Point", "coordinates": [-71.10136609999999, 42.3915943]}, "type": "Feature", "properties": {"startdate": "11/14/2016 0:00:00", "enddate": "12/10/2016 0:00:00", "sticker": "100254778R1", "contractor": "NATIONAL ABATEMENT", "address": "126 Central St, Somerville, MA 02145, USA", "formtype": "anf001", "exportdate": "12/19/2016 10:08:48"}}, {"geometry": {"type": "Point", "coordinates": [-71.189595, 42.362397]}, "type": "Feature", "properties": {"startdate": "11/28/2016 0:00:00", "enddate": "11/28/2016 0:00:00", "sticker": "100254861", "contractor": "NEW ENGLAND ASBESTOS ABATEMENT", "address": "77 Union St, Watertown, MA 02472, USA", "formtype": "anf001", "exportdate": "12/8/2016 11:23:35"}}, {"geometry": {"type": "Point", "coordinates": [-72.0336887, 42.5643378]}, "type": "Feature", "properties": {"startdate": "11/22/2016 0:00:00", "enddate": "11/22/2016 0:00:00", "sticker": "100254479", "contractor": "A E ENVIRONMENTAL", "address": "49 Gardner Rd, Templeton, MA 01468, USA", "formtype": "anf001", "exportdate": "12/8/2016 11:23:35"}}, {"geometry": {"type": "Point", "coordinates": [-71.2625943, 42.4721746]}, "type": "Feature", "properties": {"startdate": "10/10/2016 0:00:00", "enddate": "11/8/2016 0:00:00", "sticker": "100251330R3", "contractor": "NORTHEAST REMEDIATION", "address": "10 Maguire Rd, Lexington, MA 02421, USA", "formtype": "anf001", "exportdate": "12/8/2016 11:23:35"}}, {"geometry": {"type": "Point", "coordinates": [-71.42391040000001, 42.5504649]}, "type": "Feature", "properties": {"startdate": "11/23/2016 0:00:00", "enddate": "11/23/2016 0:00:00", "sticker": "100254485", "contractor": "A E ENVIRONMENTAL", "address": "233 Concord Rd, Westford, MA 01886, USA", "formtype": "anf001", "exportdate": "12/8/2016 11:23:35"}}, {"geometry": {"type": "Point", "coordinates": [-70.907117, 42.510776]}, "type": "Feature", "properties": {"startdate": "12/2/2016 0:00:00", "enddate": "12/2/2016 0:00:00", "sticker": "100254483R1", "contractor": "ENVIRONMENTAL EXPERTS", "address": "81 Highland Ave, Salem, MA 01970, USA", "formtype": "anf001", "exportdate": "12/9/2016 15:06:29"}}, {"geometry": {"type": "Point", "coordinates": [-71.1872959, 42.6402499]}, "type": "Feature", "properties": {"startdate": "11/21/2016 0:00:00", "enddate": "11/30/2016 0:00:00", "sticker": "100254534", "contractor": "THE AULSON", "address": "350 Lowell St, Andover, MA 01810, USA", "formtype": "anf001", "exportdate": "12/8/2016 11:23:35"}}, {"geometry": {"type": "Point", "coordinates": [-71.1159799, 42.3046215]}, "type": "Feature", "properties": {"startdate": "11/22/2016 0:00:00", "enddate": "11/23/2016 0:00:00", "sticker": "100254535", "contractor": "ENVIRONMENTAL RESTORATIONS", "address": "25 St Rose St, Boston, MA 02130, USA", "formtype": "anf001", "exportdate": "12/8/2016 11:23:35"}}, {"geometry": {"type": "Point", "coordinates": [-71.1639063, 42.6842226]}, "type": "Feature", "properties": {"startdate": "11/14/2016 0:00:00", "enddate": "11/18/2016 0:00:00", "sticker": "100254348R2", "contractor": "IMPRESAIR ENVIRONMENTAL", "address": "3 Cyr Dr, Lawrence, MA 01843, USA", "formtype": "anf001", "exportdate": "12/8/2016 11:23:35"}}, {"geometry": {"type": "Point", "coordinates": [-71.866574, 42.122005]}, "type": "Feature", "properties": {"startdate": "11/28/2016 0:00:00", "enddate": "11/28/2016 0:00:00", "sticker": "100254967", "contractor": "WALSH ENVIRONMENTAL", "address": "3 West St, Oxford, MA 01540, USA", "formtype": "anf001", "exportdate": "12/8/2016 11:23:35"}}, {"geometry": {"type": "Point", "coordinates": [-71.0879072, 42.3624258]}, "type": "Feature", "properties": {"startdate": "12/9/2016 0:00:00", "enddate": "12/31/2016 0:00:00", "sticker": "100252748R5", "contractor": "NORTHSTAR CONTRACTING", "address": "400 Main St, Cambridge, MA 02142, USA", "formtype": "anf001", "exportdate": "12/19/2016 10:08:48"}}, {"geometry": {"type": "Point", "coordinates": [-71.16373949999999, 42.5705123]}, "type": "Feature", "properties": {"startdate": "11/23/2016 0:00:00", "enddate": "11/23/2016 0:00:00", "sticker": "100254254R2", "contractor": "DECTAM", "address": "21 Pinewood Rd, Wilmington, MA 01887, USA", "formtype": "anf001", "exportdate": "12/8/2016 11:23:35"}}, {"geometry": {"type": "Point", "coordinates": [-71.0955896, 41.9065419]}, "type": "Feature", "properties": {"startdate": "11/30/2016 0:00:00", "enddate": "11/30/2016 0:00:00", "sticker": "100254869", "contractor": "FJC ENTERPRISES", "address": "88 Washington St, Taunton, MA 02780, USA", "formtype": "anf001", "exportdate": "12/8/2016 11:23:35"}}, {"geometry": {"type": "Point", "coordinates": [-71.1158325, 42.304613]}, "type": "Feature", "properties": {"startdate": "11/22/2016 0:00:00", "enddate": "11/23/2016 0:00:00", "sticker": "100254536", "contractor": "ENVIRONMENTAL RESTORATIONS", "address": "21 St Rose St, Boston, MA 02130, USA", "formtype": "anf001", "exportdate": "12/8/2016 11:23:35"}}, {"geometry": {"type": "Point", "coordinates": [-71.1017916, 42.299581]}, "type": "Feature", "properties": {"startdate": "11/9/2016 0:00:00", "enddate": "11/9/2016 0:00:00", "sticker": "100254538", "contractor": "NEW ENGLAND SURFACE MAINTENANCE", "address": "170 Morton St, Boston, MA 02130, USA", "formtype": "anf001", "exportdate": "12/8/2016 11:23:35"}}, {"geometry": {"type": "Point", "coordinates": [-71.1052457, 42.3396532]}, "type": "Feature", "properties": {"startdate": "11/3/2016 0:00:00", "enddate": "11/30/2016 0:00:00", "sticker": "100253289R3", "contractor": "FJC ENTERPRISES", "address": "330 Brookline Ave, Boston, MA 02115, USA", "formtype": "anf001", "exportdate": "12/8/2016 11:23:35"}}, {"geometry": {"type": "Point", "coordinates": [-72.5259982, 42.3872501]}, "type": "Feature", "properties": {"startdate": "11/17/2016 0:00:00", "enddate": "11/22/2016 0:00:00", "sticker": "100254568", "contractor": "NON LICENSED REMOVAL", "address": "181 Presidents Dr, Amherst, MA 01002, USA", "formtype": "anf001", "exportdate": "12/8/2016 11:23:35"}}, {"geometry": {"type": "Point", "coordinates": [-71.097355, 42.3201797]}, "type": "Feature", "properties": {"startdate": "12/15/2016 0:00:00", "enddate": "1/6/2017 0:00:00", "sticker": "100249142R13", "contractor": "DECTAM", "address": "41 Dimock St, Boston, MA 02119, USA", "formtype": "anf001", "exportdate": "12/19/2016 10:08:48"}}, {"geometry": {"type": "Point", "coordinates": [-71.2428175, 42.3912072]}, "type": "Feature", "properties": {"startdate": "11/11/2016 0:00:00", "enddate": "11/30/2016 0:00:00", "sticker": "100254065", "contractor": "CORE CONTRACTING", "address": "24 Rando Ln, Waltham, MA 02451, USA", "formtype": "anf001", "exportdate": "12/8/2016 11:23:35"}}, {"geometry": {"type": "Point", "coordinates": [-72.6829899, 42.3492526]}, "type": "Feature", "properties": {"startdate": "11/2/2016 0:00:00", "enddate": "11/3/2016 0:00:00", "sticker": "100254076", "contractor": "GLOBAL COMPASS", "address": "421 N Main St, Northampton, MA 01062, USA", "formtype": "anf001", "exportdate": "12/8/2016 11:23:35"}}, {"geometry": {"type": "Point", "coordinates": [-71.08619039999999, 42.2610309]}, "type": "Feature", "properties": {"startdate": "11/15/2016 0:00:00", "enddate": "11/15/2016 0:00:00", "sticker": "100254075", "contractor": "AFFORDABLE ENVIRONMENTAL", "address": "6 Windsor Rd, Milton, MA 02186, USA", "formtype": "anf001", "exportdate": "12/8/2016 11:23:35"}}, {"geometry": {"type": "Point", "coordinates": [-71.06581899999999, 42.467298]}, "type": "Feature", "properties": {"startdate": "11/28/2016 0:00:00", "enddate": "11/28/2016 0:00:00", "sticker": "100254566", "contractor": "ASBESTOS FREE", "address": "51 Ashland St, Melrose, MA 02176, USA", "formtype": "anf001", "exportdate": "12/8/2016 11:23:35"}}, {"geometry": {"type": "Point", "coordinates": [-72.750816, 42.124655]}, "type": "Feature", "properties": {"startdate": "11/28/2016 0:00:00", "enddate": "12/1/2016 0:00:00", "sticker": "100254565", "contractor": "TOP NOTCH ABATEMENT", "address": "48 Franklin St, Westfield, MA 01085, USA", "formtype": "anf001", "exportdate": "12/8/2016 11:23:35"}}, {"geometry": {"type": "Point", "coordinates": [-71.8045459, 42.30588909999999]}, "type": "Feature", "properties": {"startdate": "11/8/2016 0:00:00", "enddate": "11/8/2016 0:00:00", "sticker": "100254570", "contractor": "WINFIELD S HANCOCK", "address": "1 New Bond St, Worcester, MA 01606, USA", "formtype": "anf001", "exportdate": "12/8/2016 11:23:35"}}, {"geometry": {"type": "Point", "coordinates": [-70.6452857, 41.9430019]}, "type": "Feature", "properties": {"startdate": "12/27/2016 0:00:00", "enddate": "12/31/2016 0:00:00", "sticker": "100253485R4", "contractor": "BRISTOL ENVIRONMENTAL", "address": "275 Sandwich St, Plymouth, MA 02360, USA", "formtype": "anf001", "exportdate": "12/19/2016 10:08:48"}}, {"geometry": {"type": "Point", "coordinates": [-71.1275466, 42.3353231]}, "type": "Feature", "properties": {"startdate": "11/3/2016 0:00:00", "enddate": "11/7/2016 0:00:00", "sticker": "100254572R1", "contractor": "ATLANTIC BAY CONTRACTING", "address": "40 Somerset Rd, Brookline, MA 02445, USA", "formtype": "anf001", "exportdate": "12/9/2016 15:06:29"}}, {"geometry": {"type": "Point", "coordinates": [-71.1193402, 42.34232129999999]}, "type": "Feature", "properties": {"startdate": "10/19/2016 0:00:00", "enddate": "12/6/2016 0:00:00", "sticker": "100251684R13", "contractor": "FJC ENTERPRISES", "address": "1285 Beacon St, Brookline, MA 02446, USA", "formtype": "anf001", "exportdate": "12/19/2016 10:08:48"}}, {"geometry": {"type": "Point", "coordinates": [-71.09857199999999, 42.471942]}, "type": "Feature", "properties": {"startdate": "11/28/2016 0:00:00", "enddate": "11/28/2016 0:00:00", "sticker": "100254567", "contractor": "ASBESTOS FREE", "address": "11 Rowe Hill Rd, Stoneham, MA 02180, USA", "formtype": "anf001", "exportdate": "12/8/2016 11:23:35"}}, {"geometry": {"type": "Point", "coordinates": [-70.9828902, 42.2426961]}, "type": "Feature", "properties": {"startdate": "11/16/2016 0:00:00", "enddate": "11/18/2016 0:00:00", "sticker": "100253130R3", "contractor": "SEN CAM", "address": "1000 Southern Artery, Quincy, MA 02169, USA", "formtype": "anf001", "exportdate": "12/9/2016 15:06:29"}}, {"geometry": {"type": "Point", "coordinates": [-70.101002, 41.275084]}, "type": "Feature", "properties": {"startdate": "11/28/2016 0:00:00", "enddate": "12/2/2016 0:00:00", "sticker": "100254280", "contractor": "SEN CAM", "address": "57 Prospect St, Nantucket, MA 02554, USA", "formtype": "anf001", "exportdate": "12/8/2016 11:23:35"}}, {"geometry": {"type": "Point", "coordinates": [-71.1240802, 42.37631529999999]}, "type": "Feature", "properties": {"startdate": "11/23/2016 0:00:00", "enddate": "11/24/2016 0:00:00", "sticker": "100254077R1", "contractor": "THE AULSON", "address": "99 Brattle St, Cambridge, MA 02138, USA", "formtype": "anf001", "exportdate": "12/9/2016 15:06:29"}}, {"geometry": {"type": "Point", "coordinates": [-72.751008, 42.124713]}, "type": "Feature", "properties": {"startdate": "11/28/2016 0:00:00", "enddate": "12/1/2016 0:00:00", "sticker": "100254574", "contractor": "TOP NOTCH ABATEMENT", "address": "50 Franklin St, Westfield, MA 01085, USA", "formtype": "anf001", "exportdate": "12/8/2016 11:23:35"}}, {"geometry": {"type": "Point", "coordinates": [-71.07889089999999, 42.3629294]}, "type": "Feature", "properties": {"startdate": "11/7/2016 0:00:00", "enddate": "11/9/2016 0:00:00", "sticker": "100254386", "contractor": "THE AULSON", "address": "265 First St, Cambridge, MA 02142, USA", "formtype": "anf001", "exportdate": "12/8/2016 11:23:35"}}, {"geometry": {"type": "Point", "coordinates": [-71.0917783, 42.34179630000001]}, "type": "Feature", "properties": {"startdate": "11/28/2016 0:00:00", "enddate": "11/30/2016 0:00:00", "sticker": "100254674", "contractor": "NATIONAL ABATEMENT", "address": "102 Fenway, Boston, MA 02115, USA", "formtype": "anf001", "exportdate": "12/8/2016 11:23:35"}}, {"geometry": {"type": "Point", "coordinates": [-71.060541, 42.349518]}, "type": "Feature", "properties": {"startdate": "11/8/2016 0:00:00", "enddate": "11/8/2016 0:00:00", "sticker": "100254671", "contractor": "MORAN ENVIRONMENTAL RECOVERY", "address": "88 Hudson St, Boston, MA 02111, USA", "formtype": "anf001", "exportdate": "12/8/2016 11:23:35"}}, {"geometry": {"type": "Point", "coordinates": [-71.0554191, 42.4089347]}, "type": "Feature", "properties": {"startdate": "12/1/2016 0:00:00", "enddate": "12/1/2016 0:00:00", "sticker": "100254673R1", "contractor": "S S ABATEMENT", "address": "32 Webster St, Everett, MA 02149, USA", "formtype": "anf001", "exportdate": "12/19/2016 10:08:48"}}, {"geometry": {"type": "Point", "coordinates": [-71.0009855, 42.228865]}, "type": "Feature", "properties": {"startdate": "11/22/2016 0:00:00", "enddate": "11/23/2016 0:00:00", "sticker": "100254677", "contractor": "AFFORDABLE ENVIRONMENTAL", "address": "155 Hawthorn Rd, Braintree, MA 02184, USA", "formtype": "anf001", "exportdate": "12/8/2016 11:23:35"}}, {"geometry": {"type": "Point", "coordinates": [-71.03983939999999, 42.0701433]}, "type": "Feature", "properties": {"startdate": "11/16/2016 0:00:00", "enddate": "11/16/2016 0:00:00", "sticker": "100254303", "contractor": "ENVIRONMENTAL RESPONSE", "address": "470 Forest Ave, Brockton, MA 02301, USA", "formtype": "anf001", "exportdate": "12/8/2016 11:23:35"}}, {"geometry": {"type": "Point", "coordinates": [-72.551907, 42.108616]}, "type": "Feature", "properties": {"startdate": "11/9/2016 0:00:00", "enddate": "11/10/2016 0:00:00", "sticker": "100254304", "contractor": "BAYSTATE HOME GUARD", "address": "180 Westford Cir, Springfield, MA 01109, USA", "formtype": "anf001", "exportdate": "12/8/2016 11:23:35"}}, {"geometry": {"type": "Point", "coordinates": [-71.30858289999999, 42.2930684]}, "type": "Feature", "properties": {"startdate": "11/19/2016 0:00:00", "enddate": "11/25/2016 0:00:00", "sticker": "100254302R4", "contractor": "FJC ENTERPRISES", "address": "106 Central St, Wellesley, MA 02481, USA", "formtype": "anf001", "exportdate": "12/9/2016 15:06:29"}}, {"geometry": {"type": "Point", "coordinates": [-71.1337209, 42.3495667]}, "type": "Feature", "properties": {"startdate": "11/9/2016 0:00:00", "enddate": "11/30/2016 0:00:00", "sticker": "100254548", "contractor": "ENVIROGREEN", "address": "1285 Commonwealth Avenue, Allston, MA 02134, USA", "formtype": "anf001", "exportdate": "12/8/2016 11:23:35"}}, {"geometry": {"type": "Point", "coordinates": [-72.623127, 42.101251]}, "type": "Feature", "properties": {"startdate": "11/25/2016 0:00:00", "enddate": "11/28/2016 0:00:00", "sticker": "100254732", "contractor": "UNITED", "address": "60 Kelso Ave, West Springfield, MA 01089, USA", "formtype": "anf001", "exportdate": "12/8/2016 11:23:35"}}, {"geometry": {"type": "Point", "coordinates": [-71.1167153, 42.3764326]}, "type": "Feature", "properties": {"startdate": "11/25/2016 0:00:00", "enddate": "11/25/2016 0:00:00", "sticker": "100254735", "contractor": "FJC ENTERPRISES", "address": "1 Oxford St, Cambridge, MA 02138, USA", "formtype": "anf001", "exportdate": "12/8/2016 11:23:35"}}, {"geometry": {"type": "Point", "coordinates": [-71.547175, 42.305394]}, "type": "Feature", "properties": {"startdate": "11/14/2016 0:00:00", "enddate": "12/1/2016 0:00:00", "sticker": "100254079", "contractor": "ENVIRO STAFFING SOLUTIONS", "address": "116 Main St, Southborough, MA 01772, USA", "formtype": "anf001", "exportdate": "12/8/2016 11:23:35"}}, {"geometry": {"type": "Point", "coordinates": [-70.9566014, 42.0813552]}, "type": "Feature", "properties": {"startdate": "12/29/2016 0:00:00", "enddate": "12/29/2016 0:00:00", "sticker": "100252534R6", "contractor": "ENVIRONMENTAL RESPONSE", "address": "Temple St, Whitman, MA 02382, USA", "formtype": "anf001", "exportdate": "12/9/2016 15:06:29"}}, {"geometry": {"type": "Point", "coordinates": [-71.829161, 42.26601]}, "type": "Feature", "properties": {"startdate": "11/1/2016 0:00:00", "enddate": "11/1/2016 0:00:00", "sticker": "100254081", "contractor": "WINFIELD S HANCOCK", "address": "15 Brownell St, Worcester, MA 01602, USA", "formtype": "anf001", "exportdate": "12/8/2016 11:23:35"}}, {"geometry": {"type": "Point", "coordinates": [-71.389315, 42.339811]}, "type": "Feature", "properties": {"startdate": "11/15/2016 0:00:00", "enddate": "11/18/2016 0:00:00", "sticker": "100254169", "contractor": "AERO TECH ENVIRONMENTAL", "address": "2 Meadowview Rd, Wayland, MA 01778, USA", "formtype": "anf001", "exportdate": "12/8/2016 11:23:35"}}, {"geometry": {"type": "Point", "coordinates": [-71.92492159999999, 42.1524031]}, "type": "Feature", "properties": {"startdate": "11/5/2016 0:00:00", "enddate": "11/6/2016 0:00:00", "sticker": "100253393R1", "contractor": "AERO TECH ENVIRONMENTAL", "address": "6 Hammond Hill Rd, Charlton, MA 01507, USA", "formtype": "anf001", "exportdate": "12/8/2016 11:23:35"}}, {"geometry": {"type": "Point", "coordinates": [-71.6790358, 42.42057579999999]}, "type": "Feature", "properties": {"startdate": "11/15/2016 0:00:00", "enddate": "11/15/2016 0:00:00", "sticker": "100254170", "contractor": "WALSH ENVIRONMENTAL", "address": "37 Hammond St, Clinton, MA 01510, USA", "formtype": "anf001", "exportdate": "12/8/2016 11:23:35"}}, {"geometry": {"type": "Point", "coordinates": [-71.15975329999999, 42.3190551]}, "type": "Feature", "properties": {"startdate": "11/15/2016 0:00:00", "enddate": "11/21/2016 0:00:00", "sticker": "100254063", "contractor": "SORIANO ENVIRONMENTAL", "address": "105 Woodland Rd, Chestnut Hill, MA 02467, USA", "formtype": "anf001", "exportdate": "12/8/2016 11:23:35"}}, {"geometry": {"type": "Point", "coordinates": [-71.7921681, 42.27275789999999]}, "type": "Feature", "properties": {"startdate": "11/13/2016 0:00:00", "enddate": "11/13/2016 0:00:00", "sticker": "100254791", "contractor": "WINFIELD S HANCOCK", "address": "119 Belmont St, Worcester, MA 01605, USA", "formtype": "anf001", "exportdate": "12/8/2016 11:23:35"}}, {"geometry": {"type": "Point", "coordinates": [-71.2427155, 42.1617339]}, "type": "Feature", "properties": {"startdate": "12/10/2016 0:00:00", "enddate": "2/3/2017 0:00:00", "sticker": "100254820R1", "contractor": "A J DEMO", "address": "65 Gould St, Walpole, MA 02081, USA", "formtype": "anf001", "exportdate": "12/19/2016 10:08:48"}}, {"geometry": {"type": "Point", "coordinates": [-71.1654021, 42.3078645]}, "type": "Feature", "properties": {"startdate": "11/28/2016 0:00:00", "enddate": "11/29/2016 0:00:00", "sticker": "100254812", "contractor": "ENVIRONMENTAL SOLUTIONS", "address": "29 Princeton Rd, Chestnut Hill, MA 02467, USA", "formtype": "anf001", "exportdate": "12/8/2016 11:23:35"}}, {"geometry": {"type": "Point", "coordinates": [-71.08433200000002, 42.368567]}, "type": "Feature", "properties": {"startdate": "12/5/2016 0:00:00", "enddate": "12/8/2016 0:00:00", "sticker": "100254465R1", "contractor": "BANNER ENVIRONMENTAL", "address": "308 Hurley St, Cambridge, MA 02141, USA", "formtype": "anf001", "exportdate": "12/8/2016 11:23:35"}}, {"geometry": {"type": "Point", "coordinates": [-71.289194, 42.585915]}, "type": "Feature", "properties": {"startdate": "11/15/2016 0:00:00", "enddate": "11/15/2016 0:00:00", "sticker": "100254821", "contractor": "NEW ENGLAND SURFACE MAINTENANCE", "address": "14 Twombley Ave, North Billerica, MA 01862, USA", "formtype": "anf001", "exportdate": "12/8/2016 11:23:35"}}, {"geometry": {"type": "Point", "coordinates": [-71.3399525, 42.61272160000001]}, "type": "Feature", "properties": {"startdate": "11/15/2016 0:00:00", "enddate": "11/15/2016 0:00:00", "sticker": "100254822", "contractor": "NEW ENGLAND SURFACE MAINTENANCE", "address": "27 Sunset Ave, Chelmsford, MA 01824, USA", "formtype": "anf001", "exportdate": "12/8/2016 11:23:35"}}, {"geometry": {"type": "Point", "coordinates": [-70.6232962, 41.5569321]}, "type": "Feature", "properties": {"startdate": "11/7/2016 0:00:00", "enddate": "11/17/2016 0:00:00", "sticker": "100252953R4", "contractor": "ENVIRONMENTAL RESPONSE", "address": "59 Depot Ave, Falmouth, MA 02540, USA", "formtype": "anf001", "exportdate": "12/9/2016 15:06:29"}}, {"geometry": {"type": "Point", "coordinates": [-70.99305489999999, 42.0868707]}, "type": "Feature", "properties": {"startdate": "11/9/2016 0:00:00", "enddate": "11/9/2016 0:00:00", "sticker": "100253452R1", "contractor": "ENVIRONMENTAL RESPONSE", "address": "24 Adams St, Brockton, MA 02302, USA", "formtype": "anf001", "exportdate": "12/8/2016 11:23:35"}}, {"geometry": {"type": "Point", "coordinates": [-71.1034325, 42.3360204]}, "type": "Feature", "properties": {"startdate": "11/19/2016 0:00:00", "enddate": "11/25/2016 0:00:00", "sticker": "100254111R2", "contractor": "NORTHSTAR CONTRACTING", "address": "220 Longwood Ave, Boston, MA 02115, USA", "formtype": "anf001", "exportdate": "12/9/2016 15:06:29"}}, {"geometry": {"type": "Point", "coordinates": [-71.1216831, 42.395337]}, "type": "Feature", "properties": {"startdate": "1/9/2017 0:00:00", "enddate": "1/9/2017 0:00:00", "sticker": "100253618R3", "contractor": "AIR SAFE", "address": "245 Elm St, Somerville, MA 02144, USA", "formtype": "anf001", "exportdate": "12/9/2016 15:06:29"}}, {"geometry": {"type": "Point", "coordinates": [-71.093248, 42.360807]}, "type": "Feature", "properties": {"startdate": "10/25/2016 0:00:00", "enddate": "12/30/2016 0:00:00", "sticker": "100252678R7", "contractor": "NEW ROADS ENVIRONMENTAL", "address": "70 Vassar St, Cambridge, MA 02139, USA", "formtype": "anf001", "exportdate": "12/19/2016 10:08:48"}}, {"geometry": {"type": "Point", "coordinates": [-71.1159877, 42.3323519]}, "type": "Feature", "properties": {"startdate": "10/4/2016 0:00:00", "enddate": "11/14/2016 0:00:00", "sticker": "100251360R2", "contractor": "NEW ROADS ENVIRONMENTAL", "address": "4 Brookline Pl, Brookline, MA 02445, USA", "formtype": "anf001", "exportdate": "12/8/2016 11:23:35"}}, {"geometry": {"type": "Point", "coordinates": [-70.497147, 41.768763]}, "type": "Feature", "properties": {"startdate": "11/19/2016 0:00:00", "enddate": "11/19/2016 0:00:00", "sticker": "100250042R3", "contractor": "NEW ENGLAND ASBESTOS ABATEMENT", "address": "17 Dillingham Ave, Sandwich, MA 02563, USA", "formtype": "anf001", "exportdate": "12/8/2016 11:23:35"}}, {"geometry": {"type": "Point", "coordinates": [-72.621669, 42.192848]}, "type": "Feature", "properties": {"startdate": "11/17/2016 0:00:00", "enddate": "11/17/2016 0:00:00", "sticker": "100254174R1", "contractor": "BAYSTATE CONTRACTING", "address": "10 Columbia St, Holyoke, MA 01040, USA", "formtype": "anf001", "exportdate": "12/9/2016 15:06:29"}}, {"geometry": {"type": "Point", "coordinates": [-71.07029829999999, 42.35107379999999]}, "type": "Feature", "properties": {"startdate": "5/20/2016 0:00:00", "enddate": "12/30/2016 0:00:00", "sticker": "100240355R17", "contractor": "NORTHSTAR CONTRACTING", "address": "Boston, MA 02116, USA", "formtype": "anf001", "exportdate": "12/19/2016 10:08:48"}}, {"geometry": {"type": "Point", "coordinates": [-71.218743, 42.03757299999999]}, "type": "Feature", "properties": {"startdate": "11/28/2016 0:00:00", "enddate": "12/6/2016 0:00:00", "sticker": "100253925R2", "contractor": "AIR SAFE", "address": "552 N Main St, Mansfield, MA 02048, USA", "formtype": "anf001", "exportdate": "12/19/2016 10:08:48"}}, {"geometry": {"type": "Point", "coordinates": [-71.168976, 41.6985979]}, "type": "Feature", "properties": {"startdate": "11/14/2016 0:00:00", "enddate": "11/25/2016 0:00:00", "sticker": "100253882R3", "contractor": "FIBER CONTROL", "address": "170 William St, Fall River, MA 02721, USA", "formtype": "anf001", "exportdate": "12/9/2016 15:06:29"}}, {"geometry": {"type": "Point", "coordinates": [-71.1781979, 41.6792083]}, "type": "Feature", "properties": {"startdate": "11/18/2016 0:00:00", "enddate": "11/25/2016 0:00:00", "sticker": "100254222R2", "contractor": "FIBER CONTROL", "address": "2100 S Main St, Fall River, MA 02724, USA", "formtype": "anf001", "exportdate": "12/9/2016 15:06:29"}}, {"geometry": {"type": "Point", "coordinates": [-71.0739339, 42.3345876]}, "type": "Feature", "properties": {"startdate": "11/21/2016 0:00:00", "enddate": "12/19/2016 0:00:00", "sticker": "100254430R2", "contractor": "SOUTHERN MIDDLESEX INDUSTRIES", "address": "850 Harrison Ave, Boston, MA 02118, USA", "formtype": "anf001", "exportdate": "12/19/2016 10:08:48"}}, {"geometry": {"type": "Point", "coordinates": [-71.036379, 42.380212]}, "type": "Feature", "properties": {"startdate": "11/10/2016 0:00:00", "enddate": "11/10/2016 0:00:00", "sticker": "100252261R3", "contractor": "NEW ENGLAND ASBESTOS ABATEMENT", "address": "63 Monmouth St, Boston, MA 02128, USA", "formtype": "anf001", "exportdate": "12/8/2016 11:23:35"}}, {"geometry": {"type": "Point", "coordinates": [-72.5293011, 42.3915573]}, "type": "Feature", "properties": {"startdate": "10/20/2016 0:00:00", "enddate": "11/10/2016 0:00:00", "sticker": "100252501R1", "contractor": "COMPASS RESTORATION", "address": "90 Campus Center Way, Amherst, MA 01002, USA", "formtype": "anf001", "exportdate": "12/8/2016 11:23:35"}}, {"geometry": {"type": "Point", "coordinates": [-71.1125399, 41.8966566]}, "type": "Feature", "properties": {"startdate": "11/21/2016 0:00:00", "enddate": "12/2/2016 0:00:00", "sticker": "100253929R1", "contractor": "AIR SAFE", "address": "4 Woodbine St, Taunton, MA 02780, USA", "formtype": "anf001", "exportdate": "12/9/2016 15:06:29"}}, {"geometry": {"type": "Point", "coordinates": [-71.1042143, 42.33564430000001]}, "type": "Feature", "properties": {"startdate": "11/7/2016 0:00:00", "enddate": "12/31/2016 0:00:00", "sticker": "100251839R8", "contractor": "DECTAM", "address": "Gordon Hall, 25 Shattuck St, Boston, MA 02115, USA", "formtype": "anf001", "exportdate": "12/9/2016 15:06:29"}}, {"geometry": {"type": "Point", "coordinates": [-71.1261698, 42.3984849]}, "type": "Feature", "properties": {"startdate": "12/1/2016 0:00:00", "enddate": "12/2/2016 0:00:00", "sticker": "100254351", "contractor": "IMPRESAIR ENVIRONMENTAL", "address": "42 Gorham St, Somerville, MA 02144, USA", "formtype": "anf001", "exportdate": "12/8/2016 11:23:35"}}, {"geometry": {"type": "Point", "coordinates": [-71.21056279999999, 42.3412491]}, "type": "Feature", "properties": {"startdate": "11/30/2016 0:00:00", "enddate": "12/1/2016 0:00:00", "sticker": "100254268", "contractor": "IMPRESAIR ENVIRONMENTAL", "address": "77 Beaumont Ave, Newton, MA 02460, USA", "formtype": "anf001", "exportdate": "12/8/2016 11:23:35"}}, {"geometry": {"type": "Point", "coordinates": [-70.185288, 41.6678663]}, "type": "Feature", "properties": {"startdate": "11/6/2016 0:00:00", "enddate": "11/6/2016 0:00:00", "sticker": "100253561R1", "contractor": "ASBESTOS MAN REMOVAL", "address": "33 N Main St, South Yarmouth, MA 02664, USA", "formtype": "anf001", "exportdate": "12/8/2016 11:23:35"}}, {"geometry": {"type": "Point", "coordinates": [-71.0707922, 42.3515567]}, "type": "Feature", "properties": {"startdate": "11/9/2016 0:00:00", "enddate": "11/9/2016 0:00:00", "sticker": "100254543", "contractor": "THE AULSON", "address": "334 Boylston St, Boston, MA 02116, USA", "formtype": "anf001", "exportdate": "12/8/2016 11:23:35"}}, {"geometry": {"type": "Point", "coordinates": [-71.43637009999999, 42.4752849]}, "type": "Feature", "properties": {"startdate": "11/21/2016 0:00:00", "enddate": "11/25/2016 0:00:00", "sticker": "100254544", "contractor": "PREMIER ABATEMENTLABOR", "address": "80 Taylor Rd, Acton, MA 01720, USA", "formtype": "anf001", "exportdate": "12/8/2016 11:23:35"}}, {"geometry": {"type": "Point", "coordinates": [-71.3422768, 42.647737]}, "type": "Feature", "properties": {"startdate": "10/31/2016 0:00:00", "enddate": "11/23/2016 0:00:00", "sticker": "100252964R2", "contractor": "DECTAM", "address": "295 Varnum Ave, Lowell, MA 01854, USA", "formtype": "anf001", "exportdate": "12/9/2016 15:06:29"}}, {"geometry": {"type": "Point", "coordinates": [-71.13189, 42.664071]}, "type": "Feature", "properties": {"startdate": "11/10/2016 0:00:00", "enddate": "11/30/2016 0:00:00", "sticker": "100254011", "contractor": "MILL CITY ENVIRONMENTAL", "address": "131 Elm St, Andover, MA 01810, USA", "formtype": "anf001", "exportdate": "12/8/2016 11:23:35"}}, {"geometry": {"type": "Point", "coordinates": [-71.1716841, 42.4151542]}, "type": "Feature", "properties": {"startdate": "11/11/2016 0:00:00", "enddate": "11/12/2016 0:00:00", "sticker": "100253270", "contractor": "DUDLEY", "address": "110 Mt Vernon St, Arlington, MA 02476, USA", "formtype": "anf001", "exportdate": "12/8/2016 11:23:35"}}, {"geometry": {"type": "Point", "coordinates": [-73.24709969999999, 42.4481344]}, "type": "Feature", "properties": {"startdate": "11/1/2016 0:00:00", "enddate": "11/12/2016 0:00:00", "sticker": "100253896R1", "contractor": "ACME ABATEMENT CONTRACTOR", "address": "333 East St, Pittsfield, MA 01201, USA", "formtype": "anf001", "exportdate": "12/8/2016 11:23:35"}}, {"geometry": {"type": "Point", "coordinates": [-71.1454799, 42.4316339]}, "type": "Feature", "properties": {"startdate": "11/11/2016 0:00:00", "enddate": "12/1/2016 0:00:00", "sticker": "100254050R1", "contractor": "NEW ROADS ENVIRONMENTAL", "address": "485 Mystic Valley Pkwy, Winchester, MA, USA", "formtype": "anf001", "exportdate": "12/9/2016 15:06:29"}}, {"geometry": {"type": "Point", "coordinates": [-71.0370713, 42.0594394]}, "type": "Feature", "properties": {"startdate": "11/1/2016 0:00:00", "enddate": "11/1/2016 0:00:00", "sticker": "100254044", "contractor": "ENVIRONMENTAL RESPONSE", "address": "900 Ash St, Brockton, MA 02301, USA", "formtype": "anf001", "exportdate": "12/8/2016 11:23:35"}}, {"geometry": {"type": "Point", "coordinates": [-70.8815319, 42.1880215]}, "type": "Feature", "properties": {"startdate": "11/17/2016 0:00:00", "enddate": "11/17/2016 0:00:00", "sticker": "100254051", "contractor": "NEW ENGLAND SURFACE MAINTENANCE", "address": "16 Scotland St, Hingham, MA 02043, USA", "formtype": "anf001", "exportdate": "12/8/2016 11:23:35"}}, {"geometry": {"type": "Point", "coordinates": [-72.57943379999999, 42.2497554]}, "type": "Feature", "properties": {"startdate": "11/28/2016 0:00:00", "enddate": "11/29/2016 0:00:00", "sticker": "100252266R2", "contractor": "ABIDE", "address": "112 College St, South Hadley, MA 01075, USA", "formtype": "anf001", "exportdate": "12/8/2016 11:23:35"}}, {"geometry": {"type": "Point", "coordinates": [-70.9321073, 42.4757263]}, "type": "Feature", "properties": {"startdate": "11/25/2016 0:00:00", "enddate": "12/25/2016 0:00:00", "sticker": "100254833", "contractor": "CORE CONTRACTING", "address": "136 Empire St, Lynn, MA 01902, USA", "formtype": "anf001", "exportdate": "12/8/2016 11:23:35"}}, {"geometry": {"type": "Point", "coordinates": [-71.8795714, 42.2800737]}, "type": "Feature", "properties": {"startdate": "12/12/2016 0:00:00", "enddate": "12/12/2016 0:00:00", "sticker": "100254837R1", "contractor": "S S ABATEMENT", "address": "10 Scenic Dr, Worcester, MA 01602, USA", "formtype": "anf001", "exportdate": "12/9/2016 15:06:29"}}, {"geometry": {"type": "Point", "coordinates": [-73.2054513, 42.4722856]}, "type": "Feature", "properties": {"startdate": "11/14/2016 0:00:00", "enddate": "12/31/2016 0:00:00", "sticker": "100254086", "contractor": "GEM ENVIRONMENTAL", "address": "115 Cheshire Rd, Pittsfield, MA 01201, USA", "formtype": "anf001", "exportdate": "12/8/2016 11:23:35"}}, {"geometry": {"type": "Point", "coordinates": [-73.2643791, 42.4487372]}, "type": "Feature", "properties": {"startdate": "11/16/2016 0:00:00", "enddate": "1/2/2017 0:00:00", "sticker": "100254135R1", "contractor": "ENVIRONMENTAL RESTORATIONS", "address": "341 West St, Pittsfield, MA 01201, USA", "formtype": "anf001", "exportdate": "12/9/2016 15:06:29"}}, {"geometry": {"type": "Point", "coordinates": [-70.6854027, 41.7556498]}, "type": "Feature", "properties": {"startdate": "11/8/2016 0:00:00", "enddate": "12/30/2016 0:00:00", "sticker": "100254137R3", "contractor": "ACME ABATEMENT CONTRACTOR", "address": "105 Minot Ave, East Wareham, MA 02538, USA", "formtype": "anf001", "exportdate": "12/9/2016 15:06:29"}}, {"geometry": {"type": "Point", "coordinates": [-70.90165, 42.522277]}, "type": "Feature", "properties": {"startdate": "11/11/2016 0:00:00", "enddate": "11/11/2016 0:00:00", "sticker": "100254052", "contractor": "ADVANCED ABATEMENT INSULATION", "address": "3 River St, Salem, MA 01970, USA", "formtype": "anf001", "exportdate": "12/8/2016 11:23:35"}}, {"geometry": {"type": "Point", "coordinates": [-71.35628489999999, 42.2751716]}, "type": "Feature", "properties": {"startdate": "11/16/2016 0:00:00", "enddate": "12/31/2016 0:00:00", "sticker": "100254022", "contractor": "SOUTHERN MIDDLESEX INDUSTRIES", "address": "40 Cedar Ave, Natick, MA 01760, USA", "formtype": "anf001", "exportdate": "12/8/2016 11:23:35"}}, {"geometry": {"type": "Point", "coordinates": [-71.1052457, 42.3396532]}, "type": "Feature", "properties": {"startdate": "11/3/2016 0:00:00", "enddate": "11/4/2016 0:00:00", "sticker": "100253224R2", "contractor": "DECTAM", "address": "330 Brookline Ave, Boston, MA 02115, USA", "formtype": "anf001", "exportdate": "12/8/2016 11:23:35"}}, {"geometry": {"type": "Point", "coordinates": [-73.251924, 42.449004]}, "type": "Feature", "properties": {"startdate": "11/2/2016 0:00:00", "enddate": "11/3/2016 0:00:00", "sticker": "100254056", "contractor": "BRISTOL ENVIRONMENTAL", "address": "24 Federal St, Pittsfield, MA 01201, USA", "formtype": "anf001", "exportdate": "12/8/2016 11:23:35"}}, {"geometry": {"type": "Point", "coordinates": [-72.7017225, 42.110955]}, "type": "Feature", "properties": {"startdate": "11/22/2016 0:00:00", "enddate": "11/22/2016 0:00:00", "sticker": "100254057", "contractor": "ABIDE", "address": "91 E Mountain Rd, Westfield, MA 01085, USA", "formtype": "anf001", "exportdate": "12/8/2016 11:23:35"}}, {"geometry": {"type": "Point", "coordinates": [-70.7734871, 41.3208621]}, "type": "Feature", "properties": {"startdate": "11/14/2016 0:00:00", "enddate": "11/15/2016 0:00:00", "sticker": "100253999", "contractor": "ENVIRONMENTAL RESPONSE", "address": "21 Lake Rd, Chilmark, MA 02535, USA", "formtype": "anf001", "exportdate": "12/8/2016 11:23:35"}}, {"geometry": {"type": "Point", "coordinates": [-71.11499409999999, 42.3332088]}, "type": "Feature", "properties": {"startdate": "11/22/2016 0:00:00", "enddate": "11/30/2016 0:00:00", "sticker": "100254020R2", "contractor": "ATLANTIC BAY CONTRACTING", "address": "77 Village Way, Brookline, MA 02445, USA", "formtype": "anf001", "exportdate": "12/9/2016 15:06:29"}}, {"geometry": {"type": "Point", "coordinates": [-71.100003, 42.12988]}, "type": "Feature", "properties": {"startdate": "11/2/2016 0:00:00", "enddate": "11/2/2016 0:00:00", "sticker": "100253234R1", "contractor": "GREEN ENVIRONMENTAL", "address": "28 Britton Ave, Stoughton, MA 02072, USA", "formtype": "anf001", "exportdate": "12/8/2016 11:23:35"}}, {"geometry": {"type": "Point", "coordinates": [-71.0504859, 42.3576699]}, "type": "Feature", "properties": {"startdate": "11/15/2016 0:00:00", "enddate": "11/16/2016 0:00:00", "sticker": "100254024", "contractor": "NATIONAL ABATEMENT", "address": "65 E India Row #2e, Boston, MA 02110, USA", "formtype": "anf001", "exportdate": "12/8/2016 11:23:35"}}, {"geometry": {"type": "Point", "coordinates": [-71.09319529999999, 42.3609651]}, "type": "Feature", "properties": {"startdate": "11/1/2016 0:00:00", "enddate": "11/1/2016 0:00:00", "sticker": "100253944", "contractor": "ENVI LABOR SERVIVES", "address": "51 Vassar St, Cambridge, MA 02139, USA", "formtype": "anf001", "exportdate": "12/8/2016 11:23:35"}}, {"geometry": {"type": "Point", "coordinates": [-71.1299107, 42.6859549]}, "type": "Feature", "properties": {"startdate": "10/31/2016 0:00:00", "enddate": "11/21/2016 0:00:00", "sticker": "100253096R2", "contractor": "ACCOLADE ENVIRO", "address": "1 Gibson Ct, North Andover, MA 01845, USA", "formtype": "anf001", "exportdate": "12/9/2016 15:06:29"}}, {"geometry": {"type": "Point", "coordinates": [-72.544748, 42.137049]}, "type": "Feature", "properties": {"startdate": "11/16/2016 0:00:00", "enddate": "12/15/2016 0:00:00", "sticker": "100253941", "contractor": "COMPASS RESTORATION", "address": "2025 Roosevelt Ave, Springfield, MA 01104, USA", "formtype": "anf001", "exportdate": "12/8/2016 11:23:35"}}, {"geometry": {"type": "Point", "coordinates": [-72.5565631, 42.1022292]}, "type": "Feature", "properties": {"startdate": "8/23/2016 0:00:00", "enddate": "12/9/2016 0:00:00", "sticker": "100248867R4", "contractor": "NORTHSTAR CONTRACTING", "address": "263 Alden St, Springfield, MA 01109, USA", "formtype": "anf001", "exportdate": "12/19/2016 10:08:48"}}, {"geometry": {"type": "Point", "coordinates": [-71.628623, 42.327445]}, "type": "Feature", "properties": {"startdate": "11/11/2016 0:00:00", "enddate": "11/11/2016 0:00:00", "sticker": "100254088", "contractor": "ENVIROVANTAGE INC DBA LEAD SOURCE", "address": "2 Memorial Dr, Northborough, MA 01532, USA", "formtype": "anf001", "exportdate": "12/8/2016 11:23:35"}}, {"geometry": {"type": "Point", "coordinates": [-71.638229, 42.350561]}, "type": "Feature", "properties": {"startdate": "11/3/2016 0:00:00", "enddate": "11/3/2016 0:00:00", "sticker": "100253562R1", "contractor": "ENVIRONMENTAL RESPONSE", "address": "18 Coolidge Cir, Northborough, MA 01532, USA", "formtype": "anf001", "exportdate": "12/8/2016 11:23:35"}}, {"geometry": {"type": "Point", "coordinates": [-71.6073986, 42.1673896]}, "type": "Feature", "properties": {"startdate": "11/14/2016 0:00:00", "enddate": "11/16/2016 0:00:00", "sticker": "100254141", "contractor": "BAYSTATE CONTRACTING", "address": "25 Plain St, Upton, MA 01568, USA", "formtype": "anf001", "exportdate": "12/8/2016 11:23:35"}}, {"geometry": {"type": "Point", "coordinates": [-72.5288209, 42.407826]}, "type": "Feature", "properties": {"startdate": "11/30/2016 0:00:00", "enddate": "11/30/2016 0:00:00", "sticker": "100254143", "contractor": "ABIDE", "address": "15 Fisher St, Amherst, MA 01002, USA", "formtype": "anf001", "exportdate": "12/8/2016 11:23:35"}}, {"geometry": {"type": "Point", "coordinates": [-71.0615108, 42.3501304]}, "type": "Feature", "properties": {"startdate": "11/16/2016 0:00:00", "enddate": "11/17/2016 0:00:00", "sticker": "100254139", "contractor": "ADVANCED BUILDING SYSTEMS", "address": "136 Harrison Ave, Boston, MA 02111, USA", "formtype": "anf001", "exportdate": "12/8/2016 11:23:35"}}, {"geometry": {"type": "Point", "coordinates": [-72.5675624, 42.1104506]}, "type": "Feature", "properties": {"startdate": "11/21/2016 0:00:00", "enddate": "12/8/2016 0:00:00", "sticker": "100254144R4", "contractor": "BAYSTATE CONTRACTING", "address": "741 State St, Springfield, MA 01109, USA", "formtype": "anf001", "exportdate": "12/19/2016 10:08:48"}}, {"geometry": {"type": "Point", "coordinates": [-71.3247719, 42.6149783]}, "type": "Feature", "properties": {"startdate": "10/24/2016 0:00:00", "enddate": "11/3/2016 0:00:00", "sticker": "100252530R2", "contractor": "DECTAM", "address": "Cross Point, 900 Chelmsford St, Lowell, MA 01851, USA", "formtype": "anf001", "exportdate": "12/8/2016 11:23:35"}}, {"geometry": {"type": "Point", "coordinates": [-72.5006312, 42.3755532]}, "type": "Feature", "properties": {"startdate": "11/15/2016 0:00:00", "enddate": "3/30/2017 0:00:00", "sticker": "100254089R1", "contractor": "NORTHSTAR CONTRACTING", "address": "20 S East St, Amherst, MA 01002, USA", "formtype": "anf001", "exportdate": "12/9/2016 15:06:29"}}, {"geometry": {"type": "Point", "coordinates": [-70.97445739999999, 42.4521137]}, "type": "Feature", "properties": {"startdate": "11/15/2016 0:00:00", "enddate": "11/18/2016 0:00:00", "sticker": "100253610R2", "contractor": "FJC ENTERPRISES", "address": "1000 Western Ave, Lynn, MA 01905, USA", "formtype": "anf001", "exportdate": "12/9/2016 15:06:29"}}, {"geometry": {"type": "Point", "coordinates": [-71.3108, 42.6495596]}, "type": "Feature", "properties": {"startdate": "11/16/2016 0:00:00", "enddate": "11/30/2016 0:00:00", "sticker": "100254194", "contractor": "MILL CITY ENVIRONMENTAL", "address": "River Place Towers Apartments, 1 River Pl, Lowell, MA 01852, USA", "formtype": "anf001", "exportdate": "12/8/2016 11:23:35"}}, {"geometry": {"type": "Point", "coordinates": [-72.5138662, 42.064746]}, "type": "Feature", "properties": {"startdate": "11/8/2016 0:00:00", "enddate": "11/10/2016 0:00:00", "sticker": "100252175R1", "contractor": "ABIDE", "address": "60 Center Square, East Longmeadow, MA 01028, USA", "formtype": "anf001", "exportdate": "12/8/2016 11:23:35"}}, {"geometry": {"type": "Point", "coordinates": [-71.08640729999999, 41.8990255]}, "type": "Feature", "properties": {"startdate": "11/17/2016 0:00:00", "enddate": "12/15/2016 0:00:00", "sticker": "100254197", "contractor": "MILL CITY ENVIRONMENTAL", "address": "Summer St, Taunton, MA 02780, USA", "formtype": "anf001", "exportdate": "12/8/2016 11:23:35"}}, {"geometry": {"type": "Point", "coordinates": [-72.0492478, 42.68313089999999]}, "type": "Feature", "properties": {"startdate": "11/21/2016 0:00:00", "enddate": "11/21/2016 0:00:00", "sticker": "100254023", "contractor": "A E ENVIRONMENTAL", "address": "15 Oak St, Winchendon, MA 01475, USA", "formtype": "anf001", "exportdate": "12/8/2016 11:23:35"}}, {"geometry": {"type": "Point", "coordinates": [-71.09319529999999, 42.3609651]}, "type": "Feature", "properties": {"startdate": "11/1/2016 0:00:00", "enddate": "11/1/2016 0:00:00", "sticker": "100253939", "contractor": "GREEN ENVIRONMENTAL", "address": "51 Vassar St, Cambridge, MA 02139, USA", "formtype": "anf001", "exportdate": "12/8/2016 11:23:35"}}, {"geometry": {"type": "Point", "coordinates": [-71.6684764, 42.4008823]}, "type": "Feature", "properties": {"startdate": "11/17/2016 0:00:00", "enddate": "11/18/2016 0:00:00", "sticker": "100254029", "contractor": "A E ENVIRONMENTAL", "address": "2 Clinton Ave, Clinton, MA 01510, USA", "formtype": "anf001", "exportdate": "12/8/2016 11:23:35"}}, {"geometry": {"type": "Point", "coordinates": [-71.3483569, 42.373472]}, "type": "Feature", "properties": {"startdate": "11/15/2016 0:00:00", "enddate": "11/18/2016 0:00:00", "sticker": "100253538R1", "contractor": "DUDLEY", "address": "21 Adams Ln, Wayland, MA 01778, USA", "formtype": "anf001", "exportdate": "12/9/2016 15:06:29"}}, {"geometry": {"type": "Point", "coordinates": [-70.9901075, 42.375552]}, "type": "Feature", "properties": {"startdate": "11/12/2016 0:00:00", "enddate": "11/12/2016 0:00:00", "sticker": "100254031", "contractor": "S S ABATEMENT", "address": "39 Waldemar Ave, Winthrop, MA 02152, USA", "formtype": "anf001", "exportdate": "12/8/2016 11:23:35"}}, {"geometry": {"type": "Point", "coordinates": [-71.16441999999999, 42.4221069]}, "type": "Feature", "properties": {"startdate": "11/16/2016 0:00:00", "enddate": "11/16/2016 0:00:00", "sticker": "100254145", "contractor": "DUDLEY", "address": "5 Summer St Pl, Arlington, MA 02474, USA", "formtype": "anf001", "exportdate": "12/8/2016 11:23:35"}}, {"geometry": {"type": "Point", "coordinates": [-70.9551236, 42.0840817]}, "type": "Feature", "properties": {"startdate": "11/21/2016 0:00:00", "enddate": "11/23/2016 0:00:00", "sticker": "100254125", "contractor": "LUGO ENVIRONMENTAL", "address": "106 High St, Whitman, MA 02382, USA", "formtype": "anf001", "exportdate": "12/8/2016 11:23:35"}}, {"geometry": {"type": "Point", "coordinates": [-72.527419, 42.3505641]}, "type": "Feature", "properties": {"startdate": "11/3/2016 0:00:00", "enddate": "11/3/2016 0:00:00", "sticker": "100254146", "contractor": "A E ENVIRONMENTAL", "address": "156 Brittany Manor Dr, Amherst, MA 01002, USA", "formtype": "anf001", "exportdate": "12/8/2016 11:23:35"}}, {"geometry": {"type": "Point", "coordinates": [-70.6839719, 41.9709863]}, "type": "Feature", "properties": {"startdate": "11/15/2016 0:00:00", "enddate": "11/15/2016 0:00:00", "sticker": "100254172", "contractor": "ASBESTOS MAN REMOVAL", "address": "14 Hamilton St, Plymouth, MA 02360, USA", "formtype": "anf001", "exportdate": "12/8/2016 11:23:35"}}, {"geometry": {"type": "Point", "coordinates": [-70.4627019, 41.58531]}, "type": "Feature", "properties": {"startdate": "11/16/2016 0:00:00", "enddate": "11/22/2016 0:00:00", "sticker": "100254267R1", "contractor": "ENVIRONMENTAL RESPONSE", "address": "13 Compass Cir, Mashpee, MA 02649, USA", "formtype": "anf001", "exportdate": "12/9/2016 15:06:29"}}, {"geometry": {"type": "Point", "coordinates": [-72.6145724, 42.1727753]}, "type": "Feature", "properties": {"startdate": "10/31/2016 0:00:00", "enddate": "11/8/2016 0:00:00", "sticker": "100253075R2", "contractor": "SPRINGFIELD ABATEMENT", "address": "520 Meadow St, Chicopee, MA 01013, USA", "formtype": "anf001", "exportdate": "12/8/2016 11:23:35"}}, {"geometry": {"type": "Point", "coordinates": [-71.1130192, 42.37268359999999]}, "type": "Feature", "properties": {"startdate": "9/6/2016 0:00:00", "enddate": "12/30/2016 0:00:00", "sticker": "100249308R2", "contractor": "ABSOLUTE ENVIRONMENTAL", "address": "10 Ware St, Cambridge, MA 02138, USA", "formtype": "anf001", "exportdate": "12/8/2016 11:23:35"}}, {"geometry": {"type": "Point", "coordinates": [-71.30338119999999, 42.52070140000001]}, "type": "Feature", "properties": {"startdate": "11/15/2016 0:00:00", "enddate": "11/15/2016 0:00:00", "sticker": "100254200", "contractor": "ENVIRONMENTAL SOLUTIONS", "address": "141 Dudley Rd, Billerica, MA 01821, USA", "formtype": "anf001", "exportdate": "12/8/2016 11:23:35"}}, {"geometry": {"type": "Point", "coordinates": [-72.52338499999999, 42.360712]}, "type": "Feature", "properties": {"startdate": "11/22/2016 0:00:00", "enddate": "11/30/2016 0:00:00", "sticker": "100254410R2", "contractor": "TOP NOTCH ABATEMENT", "address": "31 Jeffrey Ln, Amherst, MA 01002, USA", "formtype": "anf001", "exportdate": "12/9/2016 15:06:29"}}, {"geometry": {"type": "Point", "coordinates": [-71.31987, 42.243677]}, "type": "Feature", "properties": {"startdate": "11/28/2016 0:00:00", "enddate": "11/29/2016 0:00:00", "sticker": "100254391", "contractor": "BANNER ENVIRONMENTAL", "address": "44 Glen St, Dover, MA 02030, USA", "formtype": "anf001", "exportdate": "12/8/2016 11:23:35"}}, {"geometry": {"type": "Point", "coordinates": [-72.0438154, 42.6881563]}, "type": "Feature", "properties": {"startdate": "11/11/2016 0:00:00", "enddate": "11/11/2016 0:00:00", "sticker": "100254032", "contractor": "A E ENVIRONMENTAL", "address": "366 Central St, Winchendon, MA 01475, USA", "formtype": "anf001", "exportdate": "12/8/2016 11:23:35"}}, {"geometry": {"type": "Point", "coordinates": [-72.67070799999999, 42.2717692]}, "type": "Feature", "properties": {"startdate": "11/21/2016 0:00:00", "enddate": "11/21/2016 0:00:00", "sticker": "100254500", "contractor": "ABIDE", "address": "14 Main St, Easthampton, MA 01027, USA", "formtype": "anf001", "exportdate": "12/8/2016 11:23:35"}}, {"geometry": {"type": "Point", "coordinates": [-70.0532913, 42.0307132]}, "type": "Feature", "properties": {"startdate": "11/14/2016 0:00:00", "enddate": "12/30/2016 0:00:00", "sticker": "100254504", "contractor": "ENVIRO STAFFING SOLUTIONS", "address": "Highlands Center, Provincetown, MA 02657, USA", "formtype": "anf001", "exportdate": "12/8/2016 11:23:35"}}, {"geometry": {"type": "Point", "coordinates": [-71.0924094, 42.3580232]}, "type": "Feature", "properties": {"startdate": "11/22/2016 0:00:00", "enddate": "11/23/2016 0:00:00", "sticker": "100254482", "contractor": "GREEN ENVIRONMENTAL", "address": "33 Massachusetts Ave, Cambridge, MA 02139, USA", "formtype": "anf001", "exportdate": "12/8/2016 11:23:35"}}, {"geometry": {"type": "Point", "coordinates": [-72.63324, 42.192348]}, "type": "Feature", "properties": {"startdate": "11/29/2016 0:00:00", "enddate": "12/1/2016 0:00:00", "sticker": "100254507", "contractor": "ABIDE", "address": "75-77 Longwood Ave, Holyoke, MA 01040, USA", "formtype": "anf001", "exportdate": "12/8/2016 11:23:35"}}, {"geometry": {"type": "Point", "coordinates": [-71.81559, 42.587363]}, "type": "Feature", "properties": {"startdate": "11/21/2016 0:00:00", "enddate": "12/5/2016 0:00:00", "sticker": "100254508R3", "contractor": "AIR SAFE", "address": "37 West St, Fitchburg, MA 01420, USA", "formtype": "anf001", "exportdate": "12/9/2016 15:06:29"}}, {"geometry": {"type": "Point", "coordinates": [-72.48122599999999, 42.15761699999999]}, "type": "Feature", "properties": {"startdate": "11/9/2016 0:00:00", "enddate": "11/11/2016 0:00:00", "sticker": "100253468R1", "contractor": "SPRINGFIELD ABATEMENT", "address": "14 Chestnut Pl, Ludlow, MA 01056, USA", "formtype": "anf001", "exportdate": "12/8/2016 11:23:35"}}, {"geometry": {"type": "Point", "coordinates": [-71.11792830000002, 42.3412721]}, "type": "Feature", "properties": {"startdate": "11/2/2016 0:00:00", "enddate": "11/7/2016 0:00:00", "sticker": "100254270", "contractor": "ENVIRONMENTAL RESPONSE", "address": "50 Longwood Ave, Brookline, MA 02446, USA", "formtype": "anf001", "exportdate": "12/8/2016 11:23:35"}}, {"geometry": {"type": "Point", "coordinates": [-72.5822728, 42.032669]}, "type": "Feature", "properties": {"startdate": "11/15/2016 0:00:00", "enddate": "11/16/2016 0:00:00", "sticker": "100253638R1", "contractor": "SPRINGFIELD ABATEMENT", "address": "1428 Longmeadow St, Longmeadow, MA 01106, USA", "formtype": "anf001", "exportdate": "12/8/2016 11:23:35"}}, {"geometry": {"type": "Point", "coordinates": [-71.31628409999999, 42.6356177]}, "type": "Feature", "properties": {"startdate": "10/28/2016 0:00:00", "enddate": "11/3/2016 0:00:00", "sticker": "100253057", "contractor": "HAZARDOUS ABATEMENT", "address": "100 Chelmsford St, Lowell, MA 01851, USA", "formtype": "anf001", "exportdate": "12/8/2016 11:23:35"}}, {"geometry": {"type": "Point", "coordinates": [-70.91594909999999, 41.6091061]}, "type": "Feature", "properties": {"startdate": "11/16/2016 0:00:00", "enddate": "11/16/2016 0:00:00", "sticker": "100254271", "contractor": "WALSH ENVIRONMENTAL", "address": "67 Dudley St, New Bedford, MA 02744, USA", "formtype": "anf001", "exportdate": "12/8/2016 11:23:35"}}, {"geometry": {"type": "Point", "coordinates": [-72.57520699999999, 42.085712]}, "type": "Feature", "properties": {"startdate": "11/18/2016 0:00:00", "enddate": "11/19/2016 0:00:00", "sticker": "100254321", "contractor": "BAYSTATE HOME GUARD", "address": "190 Fort Pleasant Ave, Springfield, MA 01108, USA", "formtype": "anf001", "exportdate": "12/8/2016 11:23:35"}}, {"geometry": {"type": "Point", "coordinates": [-72.47781859999999, 42.1564454]}, "type": "Feature", "properties": {"startdate": "9/29/2016 0:00:00", "enddate": "12/2/2016 0:00:00", "sticker": "100250909R2", "contractor": "ADEP", "address": "68 State St, Ludlow, MA 01056, USA", "formtype": "anf001", "exportdate": "12/8/2016 11:23:35"}}, {"geometry": {"type": "Point", "coordinates": [-71.209036, 42.3287924]}, "type": "Feature", "properties": {"startdate": "11/22/2016 0:00:00", "enddate": "11/22/2016 0:00:00", "sticker": "100254416R1", "contractor": "VAREIKA CONSTRUCTION", "address": "27 Hargrave Cir, Newton, MA 02461, USA", "formtype": "anf001", "exportdate": "12/9/2016 15:06:29"}}, {"geometry": {"type": "Point", "coordinates": [-73.15011799999999, 42.48417]}, "type": "Feature", "properties": {"startdate": "11/7/2016 0:00:00", "enddate": "11/8/2016 0:00:00", "sticker": "100254093", "contractor": "BARILE ENVIRONMENTAL", "address": "465 North St, Dalton, MA 01226, USA", "formtype": "anf001", "exportdate": "12/8/2016 11:23:35"}}, {"geometry": {"type": "Point", "coordinates": [-72.562669, 42.118749]}, "type": "Feature", "properties": {"startdate": "11/28/2016 0:00:00", "enddate": "11/28/2016 0:00:00", "sticker": "100254419", "contractor": "ABIDE", "address": "230 Oak Grove Ave, Springfield, MA 01109, USA", "formtype": "anf001", "exportdate": "12/8/2016 11:23:35"}}, {"geometry": {"type": "Point", "coordinates": [-71.016645, 42.266394]}, "type": "Feature", "properties": {"startdate": "11/28/2016 0:00:00", "enddate": "12/17/2016 0:00:00", "sticker": "100254654", "contractor": "ACME ABATEMENT CONTRACTOR", "address": "34 Chapman St, Quincy, MA 02170, USA", "formtype": "anf001", "exportdate": "12/8/2016 11:23:35"}}, {"geometry": {"type": "Point", "coordinates": [-71.09275339999999, 42.3608926]}, "type": "Feature", "properties": {"startdate": "11/22/2016 0:00:00", "enddate": "11/22/2016 0:00:00", "sticker": "100254487", "contractor": "GREEN ENVIRONMENTAL", "address": "60 Vassar St, Cambridge, MA 02139, USA", "formtype": "anf001", "exportdate": "12/8/2016 11:23:35"}}, {"geometry": {"type": "Point", "coordinates": [-73.283121, 42.3578499]}, "type": "Feature", "properties": {"startdate": "11/30/2016 0:00:00", "enddate": "12/5/2016 0:00:00", "sticker": "100254661R1", "contractor": "BARILE ENVIRONMENTAL", "address": "27 Housatonic St, Lenox, MA 01240, USA", "formtype": "anf001", "exportdate": "12/19/2016 10:08:48"}}, {"geometry": {"type": "Point", "coordinates": [-72.2186006, 42.0530544]}, "type": "Feature", "properties": {"startdate": "11/10/2016 0:00:00", "enddate": "11/14/2016 0:00:00", "sticker": "100249799R6", "contractor": "ASSOCIATED CONTRACTORS WRECKERS", "address": "21 Lake George Rd, Wales, MA 01081, USA", "formtype": "anf001", "exportdate": "12/8/2016 11:23:35"}}, {"geometry": {"type": "Point", "coordinates": [-71.851485, 42.238102]}, "type": "Feature", "properties": {"startdate": "11/7/2016 0:00:00", "enddate": "11/7/2016 0:00:00", "sticker": "100254647", "contractor": "WALSH ENVIRONMENTAL", "address": "40 Abington St, Worcester, MA 01603, USA", "formtype": "anf001", "exportdate": "12/8/2016 11:23:35"}}, {"geometry": {"type": "Point", "coordinates": [-70.9680419, 42.246539]}, "type": "Feature", "properties": {"startdate": "11/23/2016 0:00:00", "enddate": "11/28/2016 0:00:00", "sticker": "100254323", "contractor": "BANNER ENVIRONMENTAL", "address": "780 Washington St, Quincy, MA 02169, USA", "formtype": "anf001", "exportdate": "12/8/2016 11:23:35"}}, {"geometry": {"type": "Point", "coordinates": [-72.1825296, 42.5179342]}, "type": "Feature", "properties": {"startdate": "11/5/2016 0:00:00", "enddate": "11/5/2016 0:00:00", "sticker": "100254324", "contractor": "A E ENVIRONMENTAL", "address": "211 N Main St, Petersham, MA 01366, USA", "formtype": "anf001", "exportdate": "12/8/2016 11:23:35"}}, {"geometry": {"type": "Point", "coordinates": [-72.635322, 42.102235]}, "type": "Feature", "properties": {"startdate": "11/21/2016 0:00:00", "enddate": "11/22/2016 0:00:00", "sticker": "100254325", "contractor": "BAYSTATE HOME GUARD", "address": "142 Hampden St, West Springfield, MA 01089, USA", "formtype": "anf001", "exportdate": "12/8/2016 11:23:35"}}, {"geometry": {"type": "Point", "coordinates": [-71.134655, 42.252209]}, "type": "Feature", "properties": {"startdate": "11/22/2016 0:00:00", "enddate": "11/22/2016 0:00:00", "sticker": "100254320R1", "contractor": "CLEAN AIR ENVIRONMENTAL", "address": "44 Dedham St, Hyde Park, MA 02136, USA", "formtype": "anf001", "exportdate": "12/9/2016 15:06:29"}}, {"geometry": {"type": "Point", "coordinates": [-72.531555, 42.3956384]},